id_e,scope,location_mentioned,text,title,text_length,relevance,relevance_category,primary_emotion,emotion_intensity,urban_value,ai_summary,ai_confidence,has_location,like_count,comment_count,tags,source,url,crawl_time,publish_time,lon,lat,x_cgcs2000,y_cgcs2000,lon_gcj02,lat_gcj02,area,comments
e0001,规划范围,运河公园,均瑶广场的街头艺术越来越多了，推荐大家去看看,均瑶广场的街头艺术越来越多了，推荐大家去看看,22,relevant,城市,喜爱,2,high,均瑶广场的街头艺术越来越多了，推荐大家去,0.8,True,19,3,城市记忆,xiaohongshu,https://www.xiaohongshu.com/explore/55fd4176517c9af785c183f8,2026-06-13T12:00:00.000000,2026-03-19T04:16:34,111.276711,30.700322,526509.41,3397782.64,111.282351,30.697876,规划范围,
e0002,规划范围,珍珠路,关注珍珠路小学要建新的学校的最新进展,关注珍珠路小学要建新的学校的最新进展,18,relevant,规划,怀念,4,low,关注珍珠路小学要建新的学校的最新进展,0.92,True,9,5,规划,xiaohongshu,https://www.xiaohongshu.com/explore/47ae62201e18e98d2a834f88,2026-06-13T12:00:00.000000,2026-06-01T20:35:24,111.309166,30.727129,529610.48,3400762.72,111.314885,30.724742,规划范围,
e0003,规划范围,长江,城东大道的社区文化中心活动丰富，周末带娃去了,城东大道的社区文化中心活动丰富，周末带娃去了,22,relevant,城市,喜爱,3,low,城东大道的社区文化中心活动丰富，周末带娃,0.77,True,6,3,文化|打卡|宜昌|城市记忆,xiaohongshu,https://www.xiaohongshu.com/explore/96bd298fe4ff0cae05b0f669,2026-06-13T12:00:00.000000,2026-04-11T07:16:46,111.287552,30.702886,527547.27,3398069.51,111.293215,30.700454,规划范围,
e0004,规划范围,长江,水悦城最近空气有异味，居民意见很大,水悦城最近空气有异味，居民意见很大,17,relevant,城市,好奇,3,low,水悦城最近空气有异味，居民意见很大,0.85,True,3,5,宜昌|生活|环境|城市,xiaohongshu,https://www.xiaohongshu.com/explore/5e6006de27499595e26205ef,2026-06-13T12:00:00.000000,2026-03-31T17:59:57,111.329924,30.717605,531601.7,3399712.5,111.335701,30.715252,规划范围,
e0005,规划范围,东山公园,分享一下夷陵大道菜市场要搬迁的最新消息,分享一下夷陵大道菜市场要搬迁的最新消息,19,relevant,城建,满足,4,medium,分享一下夷陵大道菜市场要搬迁的最新消息,0.89,True,9,4,城建|宜昌|新鲜事|规划,xiaohongshu,https://www.xiaohongshu.com/explore/167c3198ffaa72048ec59495,2026-06-13T12:00:00.000000,2026-06-01T19:32:16,111.273728,30.712659,526220.3,3399149.68,111.279364,30.710216,规划范围,
e0006,规划范围,东山大道,宏峰上上城的下水道反味，谁能来管管,,17,relevant,环境,好奇,5,low,宏峰上上城的下水道反味，谁能来管管,0.8,True,296,20,周边|环境,dianping,https://www.dianping.com/review/98455763,2026-06-13T12:00:00.000000,2026-05-03T10:34:50,111.298765,30.729511,528613.61,3401024.1,111.304457,30.727108,规划范围,
e0007,规划范围,锦绣社区,住在滨江公园附近，路边烧烤油烟扰民，快受不了了,住在滨江公园附近，路边烧烤油烟扰民，快受不了了,23,relevant,环境,怀念,5,medium,住在滨江公园附近，路边烧烤油烟扰民，快受,0.9,True,478,17,周边|环境,dianping,https://www.dianping.com/review/42379042,2026-06-13T12:00:00.000000,2026-05-24T16:47:08,111.244399,30.689729,523416.41,3396601.06,111.25,30.687265,规划范围,
e0008,规划范围,三峡大学,分享一下沿江大道中段要拆迁了的最新消息,分享一下沿江大道中段要拆迁了的最新消息,19,relevant,城建,喜爱,4,low,分享一下沿江大道中段要拆迁了的最新消息,0.82,True,2,0,宜昌|城建|新鲜事,xiaohongshu,https://www.xiaohongshu.com/explore/314fa790b6a7861bc0997864,2026-06-13T12:00:00.000000,2026-05-24T15:49:37,111.28671,30.72022,527461.7,3399991.04,111.292372,30.717795,规划范围,
e0009,规划范围,绿萝路,关注胜利四路滨江要建新的学校的最新进展,,19,relevant,城建,怀念,1,low,关注胜利四路滨江要建新的学校的最新进展,0.81,True,55,7,城建|规划,dianping,https://www.dianping.com/review/80470136,2026-06-13T12:00:00.000000,2026-05-30T18:34:36,111.261059,30.692846,525011.84,3396950.22,111.266675,30.690385,规划范围,
e0010,规划范围,夷陵大道,云集路商场供电的需要排队排很久问题，已经反映多次,云集路商场供电的需要排队排很久问题，已经反映多次,24,relevant,社区,满足,2,medium,云集路商场供电的需要排队排很久问题，已经,0.85,True,131,11,便民|社区|生活服务|宜昌,xiaohongshu,https://www.xiaohongshu.com/explore/52fdeaf3fb8c5591e4fb1f53,2026-06-13T12:00:00.000000,2026-05-17T03:33:00,111.298777,30.709754,528620.6,3398833.74,111.304467,30.707341,规划范围,
e0011,规划范围,西陵区,万达广场的河水发臭了影响了周边居民生活,万达广场的河水发臭了影响了周边居民生活,19,relevant,城市,满足,5,medium,万达广场的河水发臭了影响了周边居民生活,0.96,True,8,1,生活|城市|宜昌|环境,xiaohongshu,https://www.xiaohongshu.com/explore/3fb97ad92bfd71c72f928cbc,2026-06-13T12:00:00.000000,2026-03-27T21:02:53,111.289589,30.709525,527740.52,3398806.04,111.295257,30.707099,规划范围,
e0012,规划范围,滨江公园,听说体育场路规划方案公示了，真的假的,听说体育场路规划方案公示了，真的假的,18,relevant,城建,中性,3,high,听说体育场路规划方案公示了，真的假的,0.78,True,24,4,城建|宜昌|新鲜事,xiaohongshu,https://www.xiaohongshu.com/explore/18494aa80e0c5bda7b36d4b8,2026-06-13T12:00:00.000000,2026-05-24T12:34:41,111.288234,30.738622,527602.43,3402031.56,111.293901,30.736208,规划范围,
e0013,规划范围,运河公园,每次路过胜利四路滨江都闻到水质越来越差了,,20,relevant,环境,喜爱,2,high,每次路过胜利四路滨江都闻到水质越来越差了,0.84,True,7,3,周边|环境,dianping,https://www.dianping.com/review/41463469,2026-06-13T12:00:00.000000,2026-03-22T06:07:59,111.326294,30.721174,531252.85,3400107.16,111.332061,30.718816,规划范围,
e0014,规划范围,港窑路,伍家岗区的河水发臭了问题，已经持续大半年了,伍家岗区的河水发臭了问题，已经持续大半年了,21,relevant,城市,怀念,3,low,伍家岗区的河水发臭了问题，已经持续大半年,0.84,True,23,3,身边事|城市生活|宜昌环境,weibo,https://weibo.com/3153988042/dde82619,2026-06-13T12:00:00.000000,2026-04-03T02:06:37,111.284435,30.707796,527247.29,3398613.09,111.290091,30.705362,规划范围,
e0015,规划范围,东山公园,白龙岗小区快递的早晚高峰根本挤不上去问题，已经反映多次,白龙岗小区快递的早晚高峰根本挤不上去问题，已经反映多次,27,relevant,民生,期待,1,medium,白龙岗小区快递的早晚高峰根本挤不上去问题,0.73,True,62,7,民生,weibo,https://weibo.com/1290824933/2df2f6cb,2026-06-13T12:00:00.000000,2026-06-06T02:38:16,111.310099,30.748185,529693.38,3403097.36,111.315822,30.745811,规划范围,
e0016,规划范围,绿萝路,珍珠路小学和绿萝路的银行对比，差距太大了,珍珠路小学和绿萝路的银行对比，差距太大了,20,relevant,社区,喜爱,2,medium,珍珠路小学和绿萝路的银行对比，差距太大了,0.78,True,32,3,生活服务|社区|便民,xiaohongshu,https://www.xiaohongshu.com/explore/02de0b04718aad7b05b84687,2026-06-13T12:00:00.000000,2026-03-22T10:20:49,111.279425,30.72004,526763.97,3399969.32,111.285072,30.717606,规划范围,
e0017,规划范围,西陵区,沿江大道中段供水配套设施跟不上，体验很不好,沿江大道中段供水配套设施跟不上，体验很不好,21,relevant,民生,期待,2,low,沿江大道中段供水配套设施跟不上，体验很不,0.96,True,10,5,民生,weibo,https://weibo.com/3796913682/7e3ea096,2026-06-13T12:00:00.000000,2026-05-19T22:09:49,111.257023,30.682467,524627.79,3395798.66,111.262633,30.68,规划范围,
e0018,规划范围,三峡大学,对比隔壁胜利四路，我们水悦城星巴克的快递柜需要增加,,25,relevant,设施,满足,3,high,对比隔壁胜利四路，我们水悦城星巴克的快递,0.77,True,6,3,公共设施|基础设施,dianping,https://www.dianping.com/review/34757187,2026-06-13T12:00:00.000000,2026-05-23T00:33:39,111.266589,30.71926,525534.71,3399879.85,111.272214,30.716815,规划范围,
e0019,规划范围,珍珠路,黄柏河的晚上光污染严重影响了周边居民生活,黄柏河的晚上光污染严重影响了周边居民生活,20,relevant,城市,期待,5,high,黄柏河的晚上光污染严重影响了周边居民生活,0.9,True,2,5,城市生活,weibo,https://weibo.com/6800991145/a1db354f,2026-06-13T12:00:00.000000,2026-05-29T10:56:21,111.295029,30.710762,528261.27,3398944.54,111.30071,30.708344,规划范围,
e0020,规划范围,云集路,国贸大厦的老建筑翻新后挺有味道，老宜昌人的记忆,国贸大厦的老建筑翻新后挺有味道，老宜昌人的记忆,23,relevant,城市,愤怒,2,low,国贸大厦的老建筑翻新后挺有味道，老宜昌人,0.97,True,5,1,宜昌|文化|城市记忆,xiaohongshu,https://www.xiaohongshu.com/explore/dbf5f79b14d7e4a38c2d3f99,2026-06-13T12:00:00.000000,2026-05-18T20:49:44,111.294942,30.711893,528252.61,3399069.91,111.300623,30.709475,规划范围,
e0021,规划范围,水悦城,住在万达广场，充电桩没人管真是受够了,,18,relevant,设施,愤怒,3,medium,住在万达广场，充电桩没人管真是受够了,0.92,True,7,0,公共设施|基础设施,dianping,https://www.dianping.com/review/79261724,2026-06-13T12:00:00.000000,2026-03-24T20:28:00,111.293707,30.720702,528131.75,3400046.21,111.299386,30.718287,规划范围,
e0022,规划范围,发展大道,住在绿萝路最不方便的就是保安早晚高峰根本挤不上去,住在绿萝路最不方便的就是保安早晚高峰根本挤不上去,24,relevant,民生,期待,1,high,住在绿萝路最不方便的就是保安早晚高峰根本,0.72,True,35,6,生活便利|民生,weibo,https://weibo.com/6912470897/bb48a389,2026-06-13T12:00:00.000000,2026-03-21T18:08:05,111.286124,30.719624,527405.74,3399924.82,111.291785,30.717198,规划范围,
e0023,规划范围,万达广场,云集路的文创园搞得很不错，老宜昌人的记忆,云集路的文创园搞得很不错，老宜昌人的记忆,20,relevant,城市,怀念,4,low,云集路的文创园搞得很不错，老宜昌人的记忆,0.84,True,2,2,打卡|城市记忆|宜昌,xiaohongshu,https://www.xiaohongshu.com/explore/aa473338a1151e6d9ca95d95,2026-06-13T12:00:00.000000,2026-04-10T11:13:35,111.320463,30.714826,530696.36,3399401.78,111.326213,30.712454,规划范围,
e0024,规划范围,万达广场,周末去三峡大学逛了逛，文创园搞得很不错,周末去三峡大学逛了逛，文创园搞得很不错,19,relevant,城市,好奇,5,high,周末去三峡大学逛了逛，文创园搞得很不错,0.72,True,5,3,城市记忆,weibo,https://weibo.com/3024916266/dccab7d1,2026-06-13T12:00:00.000000,2026-03-22T11:52:24,111.275456,30.701645,526388.82,3397929.02,111.281094,30.699198,规划范围,
e0025,规划范围,均瑶广场,CBD楼梯扶手终于要升级了，期待,CBD楼梯扶手终于要升级了，期待,16,relevant,城市,满足,2,medium,CBD楼梯扶手终于要升级了，期待,0.92,True,12,4,城市设施|民生关注,weibo,https://weibo.com/4635241703/84afe811,2026-06-13T12:00:00.000000,2026-05-08T11:17:40,111.320271,30.729428,530673.34,3401020.59,111.326021,30.727063,规划范围,
e0026,规划范围,长江,沿江大道中段新开了供水，方便多了,沿江大道中段新开了供水，方便多了,16,relevant,社区,喜爱,3,medium,沿江大道中段新开了供水，方便多了,0.81,True,17,3,生活服务|宜昌|社区|便民,xiaohongshu,https://www.xiaohongshu.com/explore/30ca70aae13240fe2321fb0c,2026-06-13T12:00:00.000000,2026-05-21T09:09:07,111.304674,30.731533,529178.93,3401249.79,111.310381,30.729141,规划范围,
e0027,规划范围,夷陵区,听说绿萝路菜市场要搬迁，真的假的,听说绿萝路菜市场要搬迁，真的假的,16,relevant,城建,满足,2,high,听说绿萝路菜市场要搬迁，真的假的,0.9,True,10,4,城建|规划|宜昌,xiaohongshu,https://www.xiaohongshu.com/explore/98e1fb7ea68fb9a3cc345fe8,2026-06-13T12:00:00.000000,2026-05-09T03:11:36,111.307424,30.745929,529437.92,3402846.54,111.31314,30.743549,规划范围,
e0028,规划范围,CBD,听说白龙岗小区南门规划方案公示了，真的假的,听说白龙岗小区南门规划方案公示了，真的假的,21,relevant,城建,愤怒,3,high,听说白龙岗小区南门规划方案公示了，真的假,0.94,True,21,3,宜昌|新鲜事|城建|规划,xiaohongshu,https://www.xiaohongshu.com/explore/53ea5b5e3e247875a4e2b41f,2026-06-13T12:00:00.000000,2026-05-23T20:06:02,111.287952,30.71039,527583.46,3398901.54,111.293616,30.707962,规划范围,
e0029,规划范围,滨江公园,每次路过胜利四路滨江都闻到垃圾清运不及时,每次路过胜利四路滨江都闻到垃圾清运不及时,20,relevant,城市,中性,1,medium,每次路过胜利四路滨江都闻到垃圾清运不及时,0.88,True,107,5,环境|宜昌|城市,xiaohongshu,https://www.xiaohongshu.com/explore/9f4ef674a2a21764c8ded442,2026-06-13T12:00:00.000000,2026-04-19T20:07:26,111.304668,30.719515,529181.98,3399917.41,111.310374,30.717117,规划范围,
e0030,规划范围,东山,每次路过东山大道都闻到水质越来越差了,,18,relevant,环境,期待,3,medium,每次路过东山大道都闻到水质越来越差了,0.71,True,4,3,周边环境,meituan,https://www.meituan.com/meishi/774541062/,2026-06-13T12:00:00.000000,2026-04-30T23:14:53,111.264666,30.692831,525357.43,3396949.36,111.270286,30.690372,规划范围,
e0031,规划范围,港窑路,夷陵广场喷泉下水道好几天没人修，打12345有用吗,夷陵广场喷泉下水道好几天没人修，打12345有用吗,25,relevant,设施,怀念,3,medium,夷陵广场喷泉下水道好几天没人修，打123,0.8,True,546,25,基础设施,meituan,https://www.meituan.com/meishi/897038407/,2026-06-13T12:00:00.000000,2026-05-06T02:09:08,111.277896,30.698532,526623.43,3397584.47,111.283539,30.696086,规划范围,
e0032,规划范围,港窑路,今天看到滨江公园公交线路要调整的通告,,18,relevant,城建,好奇,4,medium,今天看到滨江公园公交线路要调整的通告,0.86,True,3,5,城建|规划,dianping,https://www.dianping.com/review/12435573,2026-06-13T12:00:00.000000,2026-04-08T10:34:15,111.315656,30.742167,530227.37,3402431.65,111.321394,30.7398,规划范围,
e0033,规划范围,体育场路,夷陵区老建筑翻新后挺有味道，很有特色,夷陵区老建筑翻新后挺有味道，很有特色,18,relevant,城市,期待,5,low,夷陵区老建筑翻新后挺有味道，很有特色,0.89,True,27,5,城市记忆|打卡宜昌,weibo,https://weibo.com/4902173216/77d53309,2026-06-13T12:00:00.000000,2026-03-13T03:03:24,111.326463,30.721131,531269.05,3400102.44,111.33223,30.718774,规划范围,
e0034,规划范围,磨基山公园,发展大道的垃圾桶终于存在安全隐患了,,17,relevant,设施,满足,2,high,发展大道的垃圾桶终于存在安全隐患了,0.89,True,5,2,基础设施,meituan,https://www.meituan.com/meishi/241579398/,2026-06-13T12:00:00.000000,2026-05-01T03:51:21,111.299358,30.718816,528673.57,3399838.55,111.30505,30.716409,规划范围,
e0035,规划范围,西陵一路,三峡大学图书馆附近充电桩存在安全隐患，出行很不方便,三峡大学图书馆附近充电桩存在安全隐患，出行很不方便,25,relevant,城市,期待,4,low,三峡大学图书馆附近充电桩存在安全隐患，出,0.96,True,0,4,社区|宜昌|城市生活,xiaohongshu,https://www.xiaohongshu.com/explore/725af48526963f7153875a28,2026-06-13T12:00:00.000000,2026-05-02T19:57:57,111.280217,30.714083,526841.48,3399309.08,111.285865,30.711647,规划范围,
e0036,规划范围,伍家岗区,住在夷陵大道，红绿灯不够用真是受够了,住在夷陵大道，红绿灯不够用真是受够了,18,relevant,城市,满足,5,medium,住在夷陵大道，红绿灯不够用真是受够了,0.96,True,8,4,城市设施|宜昌身边事,weibo,https://weibo.com/2129810400/7128b57e,2026-06-13T12:00:00.000000,2026-05-30T02:39:49,111.298932,30.707706,528636.05,3398606.72,111.304622,30.705293,规划范围,
e0037,规划范围,国贸大厦,港窑路水质越来越差了，希望有关部门管管,港窑路水质越来越差了，希望有关部门管管,19,relevant,城市,期待,2,high,港窑路水质越来越差了，希望有关部门管管,0.75,True,630,40,城市|环境|生活|宜昌,xiaohongshu,https://www.xiaohongshu.com/explore/bf1ac270a1c6d1a844159878,2026-06-13T12:00:00.000000,2026-04-13T06:58:56,111.297475,30.711888,528495.25,3399069.99,111.303162,30.709474,规划范围,
e0038,规划范围,国贸大厦,黄柏河晚上光污染严重，大家有没有同感,黄柏河晚上光污染严重，大家有没有同感,18,relevant,环境,怀念,3,medium,黄柏河晚上光污染严重，大家有没有同感,0.92,True,16,1,周边环境,meituan,https://www.meituan.com/meishi/632876176/,2026-06-13T12:00:00.000000,2026-05-09T23:41:00,111.295295,30.71063,528286.79,3398929.97,111.300977,30.708212,规划范围,
e0039,规划范围,体育场路,均瑶广场门口河道漂浮垃圾，希望有关部门管管,均瑶广场门口河道漂浮垃圾，希望有关部门管管,21,relevant,环境,喜爱,3,medium,均瑶广场门口河道漂浮垃圾，希望有关部门管,0.71,True,111,10,宜昌|环境|生活,xiaohongshu,https://www.xiaohongshu.com/explore/acdc200a260a23367a492ad9,2026-06-13T12:00:00.000000,2026-04-07T10:21:19,111.314635,30.726622,530134.44,3400707.97,111.320369,30.724245,规划范围,
e0040,规划范围,白龙岗小区,城东大道的保洁比以前好多了,城东大道的保洁比以前好多了,13,relevant,社区,喜爱,3,low,城东大道的保洁比以前好多了,0.73,True,75,6,社区|宜昌|生活服务,xiaohongshu,https://www.xiaohongshu.com/explore/cf7bd18508d771bcbc51e39c,2026-06-13T12:00:00.000000,2026-03-21T19:16:07,111.28106,30.700717,526925.95,3397827.46,111.286709,30.698276,规划范围,
e0041,规划范围,滨江公园,港窑路口的河水发臭了影响了周边居民生活,港窑路口的河水发臭了影响了周边居民生活,19,relevant,城市,喜爱,1,medium,港窑路口的河水发臭了影响了周边居民生活,0.95,True,5,5,城市|环境,xiaohongshu,https://www.xiaohongshu.com/explore/ab56c891570762ab9ba6fbb3,2026-06-13T12:00:00.000000,2026-03-25T22:24:09,111.296577,30.700157,528412.67,3397769.21,111.302261,30.697736,规划范围,
e0042,规划范围,水悦城,对比隔壁夷陵大道，我们东山公园山顶的健身器材被占了,对比隔壁夷陵大道，我们东山公园山顶的健身器材被占了,25,relevant,城市,好奇,3,low,对比隔壁夷陵大道，我们东山公园山顶的健身,0.95,True,499,3,城市生活,xiaohongshu,https://www.xiaohongshu.com/explore/2cb50b7b118cb4c9edd315fc,2026-06-13T12:00:00.000000,2026-05-07T12:37:06,111.278894,30.71429,526714.7,3399331.72,111.28454,30.711853,规划范围,
e0043,规划范围,三峡大学,锦绣社区门口斑马线存在安全隐患，反映了好几次了,锦绣社区门口斑马线存在安全隐患，反映了好几次了,23,relevant,社区,期待,2,low,锦绣社区门口斑马线存在安全隐患，反映了好,0.75,True,11,1,民生|社区,xiaohongshu,https://www.xiaohongshu.com/explore/9316d1bcab64a54205043df2,2026-06-13T12:00:00.000000,2026-05-07T16:27:55,111.305291,30.739523,529235.61,3402135.77,111.311001,30.737136,规划范围,
e0044,规划范围,运河公园,每次路过锦绣社区门口都闻到空气有异味,每次路过锦绣社区门口都闻到空气有异味,18,relevant,城市,怀念,4,medium,每次路过锦绣社区门口都闻到空气有异味,0.88,True,47,5,宜昌|城市,xiaohongshu,https://www.xiaohongshu.com/explore/9f714119833231987d481f02,2026-06-13T12:00:00.000000,2026-05-24T02:50:41,111.279376,30.717745,526759.91,3399714.87,111.285023,30.71531,规划范围,
e0045,规划范围,白龙岗小区,东山公园无障碍通道太旧了，打12345有用吗,东山公园无障碍通道太旧了，打12345有用吗,22,relevant,设施,期待,2,low,东山公园无障碍通道太旧了，打12345有,0.76,True,6,0,市政设施|公共设施,su12345,https://su12345.yichang.gov.cn/complaint/S2026230560,2026-06-13T12:00:00.000000,2026-05-03T08:44:55,111.329434,30.723477,531552.86,3400363.37,111.33521,30.721126,规划范围,
e0046,规划范围,长江,锦绣社区门口开发商跑路了，大家反对,锦绣社区门口开发商跑路了，大家反对,17,relevant,规划,怀念,4,low,锦绣社区门口开发商跑路了，大家反对,0.88,True,71,2,规划,xiaohongshu,https://www.xiaohongshu.com/explore/a6f31754b8093d5089f4aee0,2026-06-13T12:00:00.000000,2026-03-30T07:52:24,111.309156,30.742783,529604.74,3402498.21,111.314876,30.740404,规划范围,
e0047,规划范围,三峡大学,黄柏河准备建垃圾中转站，大家观望中,黄柏河准备建垃圾中转站，大家观望中,17,relevant,规划,中性,3,medium,黄柏河准备建垃圾中转站，大家观望中,0.88,True,17,3,规划,xiaohongshu,https://www.xiaohongshu.com/explore/da2b7aed5c19cfcab170eef8,2026-06-13T12:00:00.000000,2026-05-01T12:17:41,111.289703,30.711633,527750.84,3399039.77,111.295371,30.709208,规划范围,
e0048,规划范围,水悦城,江山多娇的保洁比以前差远了，大家有没有同感,江山多娇的保洁比以前差远了，大家有没有同感,21,relevant,民生,怀念,1,medium,江山多娇的保洁比以前差远了，大家有没有同,0.85,True,109,5,民生|宜昌服务|生活便利,weibo,https://weibo.com/4712984115/36a5220c,2026-06-13T12:00:00.000000,2026-06-10T06:02:56,111.287864,30.709742,527575.21,3398829.67,111.293528,30.707313,规划范围,
e0049,规划范围,黄柏河,夷陵大道的博物馆免费开放了，拍照超出片,夷陵大道的博物馆免费开放了，拍照超出片,19,relevant,城市,愤怒,1,medium,夷陵大道的博物馆免费开放了，拍照超出片,0.88,True,28,3,打卡宜昌|宜昌文化|城市记忆,weibo,https://weibo.com/6933658700/b715923e,2026-06-13T12:00:00.000000,2026-04-29T03:25:27,111.313373,30.731515,530012.05,3401250.09,111.319104,30.729138,规划范围,
e0050,规划范围,发展大道,伍家岗区下水道终于要换新了，期待,伍家岗区下水道终于要换新了，期待,16,relevant,社区,失望,2,high,伍家岗区下水道终于要换新了，期待,0.71,True,1189,22,社区,xiaohongshu,https://www.xiaohongshu.com/explore/a2c60cbab65882cfddf29a8c,2026-06-13T12:00:00.000000,2026-04-06T16:54:17,111.281548,30.728057,526965.09,3400858.64,111.2872,30.72563,规划范围,
e0051,规划范围,锦绣社区,伍家岗区环境整治后好多了，但工地天天施工，噪音太大了还是存在,伍家岗区环境整治后好多了，但工地天天施工，噪音太大了还是存在,30,relevant,城市,期待,3,low,伍家岗区环境整治后好多了，但工地天天施工,0.71,True,11,1,宜昌环境|城市生活,weibo,https://weibo.com/7176048648/88681812,2026-06-13T12:00:00.000000,2026-05-22T15:38:25,111.271463,30.697986,526007.27,3397522.43,111.277094,30.695534,规划范围,
e0052,规划范围,葛洲坝,三峡大学图书馆的环境问题：绿化带被破坏了,三峡大学图书馆的环境问题：绿化带被破坏了,20,relevant,城市,满足,1,medium,三峡大学图书馆的环境问题：绿化带被破坏了,0.88,True,8,3,城市|宜昌|环境|生活,xiaohongshu,https://www.xiaohongshu.com/explore/bd8a57310a521038c8bfa106,2026-06-13T12:00:00.000000,2026-03-30T14:06:23,111.291345,30.723397,527904.74,3400344.4,111.297018,30.72098,规划范围,
e0053,规划范围,长江,城东大道BRT站开发商跑路了，有业主群吗求拉,,22,relevant,规划,失望,5,high,城东大道BRT站开发商跑路了，有业主群吗,0.86,True,11,5,规划,dianping,https://www.dianping.com/review/71750696,2026-06-13T12:00:00.000000,2026-05-11T01:03:11,111.291123,30.718018,527885.02,3399748.0,111.296795,30.715598,规划范围,
e0054,规划范围,黄柏河,吐槽港窑路口的路灯，设计不合理,吐槽港窑路口的路灯，设计不合理,15,relevant,城市,怀念,3,high,吐槽港窑路口的路灯，设计不合理,0.89,True,4,4,城市生活|民生|社区,xiaohongshu,https://www.xiaohongshu.com/explore/acf7e0d2dc71c41c3b21cd20,2026-06-13T12:00:00.000000,2026-03-15T03:00:06,111.31846,30.726731,530500.75,3400721.09,111.324205,30.724361,规划范围,
e0055,规划范围,伍家岗区,城东大道新装的路灯挺好的，给社区点赞,城东大道新装的路灯挺好的，给社区点赞,18,relevant,设施,喜爱,3,low,城东大道新装的路灯挺好的，给社区点赞,0.83,True,7,5,市政设施,su12345,https://su12345.yichang.gov.cn/complaint/S2026578474,2026-06-13T12:00:00.000000,2026-05-31T17:40:41,111.28844,30.729632,527624.72,3401034.93,111.294107,30.727214,规划范围,
e0056,规划范围,东山大道,磨基山公园的龙舟赛今年规模很大,磨基山公园的龙舟赛今年规模很大,15,relevant,城市,满足,1,high,磨基山公园的龙舟赛今年规模很大,0.84,True,9406,243,宜昌文化|城市记忆,weibo,https://weibo.com/2983138668/cdfced0f,2026-06-13T12:00:00.000000,2026-05-21T14:41:09,111.308585,30.735111,529552.4,3401647.5,111.314303,30.732727,规划范围,
e0057,规划范围,儿童公园,东山公园山顶供水终于优化了，等了很久,东山公园山顶供水终于优化了，等了很久,18,relevant,民生,失望,4,medium,东山公园山顶供水终于优化了，等了很久,0.9,True,6,3,生活便利|民生,weibo,https://weibo.com/5665809679/811743fd,2026-06-13T12:00:00.000000,2026-03-14T12:12:24,111.309959,30.721365,529688.2,3400123.9,111.31568,30.718977,规划范围,
e0058,规划范围,猇亭区,华祥商业中心要进行老旧管网改造，不知道什么时候动工,华祥商业中心要进行老旧管网改造，不知道什么时候动工,25,relevant,规划,期待,3,medium,华祥商业中心要进行老旧管网改造，不知道什,0.88,True,7,2,规划|宜昌,xiaohongshu,https://www.xiaohongshu.com/explore/bf7db16434a873531f3d6ba9,2026-06-13T12:00:00.000000,2026-06-04T08:56:58,111.289297,30.718509,527709.98,3399801.98,111.294965,30.716087,规划范围,
e0059,规划范围,黄柏河,关于三峡大学沁苑要建新的学校，有知情人士吗,关于三峡大学沁苑要建新的学校，有知情人士吗,21,relevant,城建,满足,1,high,关于三峡大学沁苑要建新的学校，有知情人士,0.78,True,14,0,宜昌新闻|城建动态|民生实事,weibo,https://weibo.com/3390882765/79b3373f,2026-06-13T12:00:00.000000,2026-05-25T00:47:29,111.267055,30.691403,525586.7,3396791.59,111.272679,30.688945,规划范围,
e0060,规划范围,东山公园,听说港窑路口要进行老旧管网改造，真的假的,,20,relevant,城建,喜爱,1,high,听说港窑路口要进行老旧管网改造，真的假的,0.82,True,79,6,城建,dianping,https://www.dianping.com/review/76435995,2026-06-13T12:00:00.000000,2026-03-27T09:04:26,111.279196,30.709181,526745.04,3398765.38,111.284842,30.706742,规划范围,
e0061,规划范围,白龙岗小区,沿江大道中段那边空气有异味,沿江大道中段那边空气有异味,13,relevant,城市,怀念,2,low,沿江大道中段那边空气有异味,0.83,True,10,4,城市|环境|生活,xiaohongshu,https://www.xiaohongshu.com/explore/7b6666c594e61c814840b1d1,2026-06-13T12:00:00.000000,2026-05-12T08:35:44,111.292601,30.719455,528026.18,3399907.68,111.298277,30.717038,规划范围,
e0062,规划范围,葛洲坝,东山大道长途站河道漂浮垃圾，希望有关部门管管,,22,relevant,环境,愤怒,5,low,东山大道长途站河道漂浮垃圾，希望有关部门,0.94,True,5,2,环境|周边,dianping,https://www.dianping.com/review/61457131,2026-06-13T12:00:00.000000,2026-03-31T04:59:04,111.307225,30.740471,529420.53,3402241.38,111.31294,30.738088,规划范围,
e0063,规划范围,磨基山公园,葛洲坝供暖终于改善了，等了很久,葛洲坝供暖终于改善了，等了很久,15,relevant,社区,期待,4,high,葛洲坝供暖终于改善了，等了很久,0.91,True,49,4,生活服务|社区,xiaohongshu,https://www.xiaohongshu.com/explore/db93e1f574ebe8ee03820cae,2026-06-13T12:00:00.000000,2026-04-15T13:41:59,111.278775,30.702326,526706.6,3398005.3,111.28442,30.699883,规划范围,
e0064,规划范围,葛洲坝,绿萝路开发商跑路了，这次是真的要动了,,18,relevant,城建,喜爱,3,low,绿萝路开发商跑路了，这次是真的要动了,0.76,True,5,1,城建|规划,dianping,https://www.dianping.com/review/22722534,2026-06-13T12:00:00.000000,2026-05-07T23:39:24,111.284956,30.699059,527299.66,3397644.59,111.290613,30.696621,规划范围,
e0065,规划范围,东山大道,住在珍珠路附近，路边烧烤油烟扰民，快受不了了,住在珍珠路附近，路边烧烤油烟扰民，快受不了了,22,relevant,城市,失望,1,high,住在珍珠路附近，路边烧烤油烟扰民，快受不,0.92,True,75,6,宜昌环境|身边事|城市生活,weibo,https://weibo.com/6745169811/fe5d7c6b,2026-06-13T12:00:00.000000,2026-05-12T12:13:49,111.285831,30.720095,527377.54,3399976.96,111.291492,30.717669,规划范围,
e0066,规划范围,运河公园,均瑶广场的公共厕所如果能增加就好了,,17,relevant,设施,愤怒,3,high,均瑶广场的公共厕所如果能增加就好了,0.88,True,55,6,基础设施|公共设施,dianping,https://www.dianping.com/review/20513573,2026-06-13T12:00:00.000000,2026-03-30T21:29:57,111.281307,30.71491,526945.66,3399401.03,111.286958,30.712476,规划范围,
e0067,规划范围,体育场路,夷陵大道公共厕所终于要修好了，期待,,17,relevant,设施,中性,1,high,夷陵大道公共厕所终于要修好了，期待,0.74,True,5,1,基础设施,meituan,https://www.meituan.com/meishi/524957321/,2026-06-13T12:00:00.000000,2026-06-10T09:35:05,111.296886,30.707771,528440.04,3398613.41,111.302571,30.705354,规划范围,
e0068,规划范围,葛洲坝,吐槽绿萝路的护栏，早该换了,吐槽绿萝路的护栏，早该换了,13,relevant,社区,愤怒,3,medium,吐槽绿萝路的护栏，早该换了,0.83,True,17,1,社区,xiaohongshu,https://www.xiaohongshu.com/explore/95870f63bca50704ec0435d2,2026-06-13T12:00:00.000000,2026-05-12T07:27:19,111.286615,30.713988,527454.37,3399300.1,111.292277,30.71156,规划范围,
e0069,规划范围,东山,长江河水发臭了，希望有关部门管管,,16,relevant,环境,愤怒,1,high,长江河水发臭了，希望有关部门管管,0.72,True,21,4,周边|环境,dianping,https://www.dianping.com/review/90028624,2026-06-13T12:00:00.000000,2026-03-18T11:25:13,111.294415,30.703872,528204.46,3398180.52,111.300094,30.70145,规划范围,
e0070,规划范围,发展大道,碧桂园公园壹号要通天然气了，不知道什么时候动工,碧桂园公园壹号要通天然气了，不知道什么时候动工,23,relevant,城建,好奇,1,low,碧桂园公园壹号要通天然气了，不知道什么时,0.98,True,4,3,宜昌|城建|规划,xiaohongshu,https://www.xiaohongshu.com/explore/c74b0dd41bf69534877ddcb9,2026-06-13T12:00:00.000000,2026-04-15T22:01:57,111.245764,30.682468,523548.96,3395796.36,111.251365,30.68,规划范围,
e0071,规划范围,水悦城,每天路过城东大道BRT站，门禁没人管太危险了,每天路过城东大道BRT站，门禁没人管太危险了,22,relevant,社区,中性,4,low,每天路过城东大道BRT站，门禁没人管太危,0.81,True,29,3,社区,xiaohongshu,https://www.xiaohongshu.com/explore/16518dcabf27d61baeafb955,2026-06-13T12:00:00.000000,2026-05-07T05:32:52,111.257267,30.710777,524643.98,3398937.3,111.26288,30.708323,规划范围,
e0072,规划范围,西陵一路,夷陵广场的下水道反味影响了周边居民生活,,19,relevant,环境,怀念,1,medium,夷陵广场的下水道反味影响了周边居民生活,0.97,True,1,0,环境|周边,dianping,https://www.dianping.com/review/58303345,2026-06-13T12:00:00.000000,2026-04-04T15:33:54,111.281071,30.703057,526926.35,3398086.89,111.28672,30.700617,规划范围,
e0073,规划范围,长江,住在珍珠路小学，下水道早该换了真是受够了,住在珍珠路小学，下水道早该换了真是受够了,20,relevant,城市,期待,3,low,住在珍珠路小学，下水道早该换了真是受够了,0.89,True,853,53,民生|城市生活,xiaohongshu,https://www.xiaohongshu.com/explore/4621583eb22ec53827b9f9a0,2026-06-13T12:00:00.000000,2026-03-17T04:35:22,111.281261,30.708904,526942.93,3398735.16,111.286911,30.706467,规划范围,
e0074,规划范围,葛洲坝,住在磨基山森林公园附近，空气有异味，快受不了了,住在磨基山森林公园附近，空气有异味，快受不了了,23,relevant,城市,好奇,1,low,住在磨基山森林公园附近，空气有异味，快受,0.83,True,32,5,城市生活|身边事,weibo,https://weibo.com/1679440556/b1b8d191,2026-06-13T12:00:00.000000,2026-06-03T14:09:36,111.304533,30.741363,529162.47,3402339.57,111.310241,30.738975,规划范围,
e0075,规划范围,水悦城,万达金街的绿化带被破坏了问题，已经持续大半年了,万达金街的绿化带被破坏了问题，已经持续大半年了,23,relevant,城市,怀念,4,high,万达金街的绿化带被破坏了问题，已经持续大,0.98,True,795,24,城市|生活|环境,xiaohongshu,https://www.xiaohongshu.com/explore/deaa74a4169ad65746a6eec8,2026-06-13T12:00:00.000000,2026-04-02T00:12:19,111.321023,30.720954,530748.06,3400081.32,111.326775,30.718586,规划范围,
e0076,规划范围,白龙岗小区,均瑶广场的晚上光污染严重影响了周边居民生活,均瑶广场的晚上光污染严重影响了周边居民生活,21,relevant,城市,喜爱,4,low,均瑶广场的晚上光污染严重影响了周边居民生,0.79,True,31,4,城市|环境|生活|宜昌,xiaohongshu,https://www.xiaohongshu.com/explore/b92fa57c60f0b88c3576e95d,2026-06-13T12:00:00.000000,2026-03-30T05:49:04,111.288021,30.708009,527590.75,3398637.58,111.293685,30.70558,规划范围,
e0077,规划范围,胜利四路,每次路过东山都闻到水质越来越差了,每次路过东山都闻到水质越来越差了,16,relevant,城市,失望,3,low,每次路过东山都闻到水质越来越差了,0.81,True,8,5,宜昌|城市,xiaohongshu,https://www.xiaohongshu.com/explore/cb3539741da033a5c46402d7,2026-06-13T12:00:00.000000,2026-04-08T01:15:00,111.303578,30.727731,529075.11,3400828.0,111.309282,30.725335,规划范围,
e0078,规划范围,港窑路,长江附近消防设施存在安全隐患，出行很不方便,长江附近消防设施存在安全隐患，出行很不方便,21,relevant,民生,喜爱,5,high,长江附近消防设施存在安全隐患，出行很不方,0.92,True,3,2,民生,xiaohongshu,https://www.xiaohongshu.com/explore/a9b92aa3e1998321f4772c40,2026-06-13T12:00:00.000000,2026-06-04T05:38:08,111.323752,30.743375,531002.27,3402567.79,111.329514,30.741024,规划范围,
e0079,规划范围,城东大道,CBD附近充电桩被占了，出行很不方便,,18,relevant,设施,中性,1,medium,CBD附近充电桩被占了，出行很不方便,0.73,True,25,5,公共设施|基础设施,dianping,https://www.dianping.com/review/99453671,2026-06-13T12:00:00.000000,2026-03-28T17:01:24,111.323332,30.717984,530970.17,3399752.68,111.32909,30.715619,规划范围,
e0080,规划范围,西陵区,每次路过东山都闻到河水发臭了,每次路过东山都闻到河水发臭了,14,relevant,环境,喜爱,1,low,每次路过东山都闻到河水发臭了,0.96,True,3,0,环境,xiaohongshu,https://www.xiaohongshu.com/explore/5b805aa765128a364bc7d728,2026-06-13T12:00:00.000000,2026-05-15T06:01:38,111.275398,30.701331,526383.35,3397894.19,111.281036,30.698884,规划范围,
e0081,规划范围,点军区,葛洲坝的非遗活动很有意思，周末带娃去了,葛洲坝的非遗活动很有意思，周末带娃去了,19,relevant,城市,喜爱,3,high,葛洲坝的非遗活动很有意思，周末带娃去了,0.72,True,35,1,打卡宜昌|宜昌文化|城市记忆,weibo,https://weibo.com/9999352606/39e5534b,2026-06-13T12:00:00.000000,2026-04-16T04:17:29,111.276622,30.690877,526503.47,3396735.5,111.282261,30.688426,规划范围,
e0082,规划范围,磨基山公园,港窑路口那边河道漂浮垃圾,港窑路口那边河道漂浮垃圾,12,relevant,环境,满足,3,high,港窑路口那边河道漂浮垃圾,0.87,True,18,0,生活|环境,xiaohongshu,https://www.xiaohongshu.com/explore/f3c3adf5b0e0a137ea7b0e57,2026-06-13T12:00:00.000000,2026-05-30T11:36:20,111.270886,30.694845,525952.83,3397174.07,111.276516,30.692391,规划范围,
e0083,规划范围,体育场路,东山大道最近要拆迁了，邻居们都在讨论,东山大道最近要拆迁了，邻居们都在讨论,18,relevant,规划,怀念,5,low,东山大道最近要拆迁了，邻居们都在讨论,0.87,True,5,1,规划公示,su12345,https://su12345.yichang.gov.cn/complaint/S2026142959,2026-06-13T12:00:00.000000,2026-04-29T05:45:58,111.28069,30.710122,526887.89,3398870.06,111.286339,30.707685,规划范围,
e0084,规划范围,黄柏河,猇亭区斑马线没人管，打12345有用吗,猇亭区斑马线没人管，打12345有用吗,19,relevant,城市,喜爱,3,low,猇亭区斑马线没人管，打12345有用吗,0.91,True,212,4,城市设施|民生关注,weibo,https://weibo.com/3910829134/89b34b02,2026-06-13T12:00:00.000000,2026-04-14T10:13:35,111.284688,30.707862,527271.5,3398620.47,111.290345,30.705428,规划范围,
e0085,规划范围,三峡大学,恒大绿洲业主在投诉物业，不知道什么时候动工,恒大绿洲业主在投诉物业，不知道什么时候动工,21,relevant,民生,满足,2,medium,恒大绿洲业主在投诉物业，不知道什么时候动,0.95,True,29,3,宜昌新闻|民生实事,weibo,https://weibo.com/5200281655/dc1f2d81,2026-06-13T12:00:00.000000,2026-05-24T19:11:25,111.262941,30.69873,525190.63,3397602.97,111.268559,30.696273,规划范围,
e0086,规划范围,国贸大厦,分享一下云集路公交线路要调整的最新消息,分享一下云集路公交线路要调整的最新消息,19,relevant,城建,好奇,3,high,分享一下云集路公交线路要调整的最新消息,0.75,True,307,9,城建|新鲜事|宜昌,xiaohongshu,https://www.xiaohongshu.com/explore/44044bd47df89bf6135b2097,2026-06-13T12:00:00.000000,2026-04-24T11:28:14,111.328413,30.721847,531455.59,3400182.37,111.334186,30.719494,规划范围,
e0087,规划范围,胜利四路,白龙岗小区要建新的学校，这次是真的要动了,,20,relevant,城建,怀念,3,low,白龙岗小区要建新的学校，这次是真的要动了,0.92,True,20,1,城建|规划,dianping,https://www.dianping.com/review/92413388,2026-06-13T12:00:00.000000,2026-05-11T05:49:05,111.267414,30.682462,525623.46,3395800.43,111.273037,30.68,规划范围,
e0088,规划范围,发展大道,城东大道BRT站无障碍通道没人管，反映了好几次了,城东大道BRT站无障碍通道没人管，反映了好几次了,24,relevant,社区,怀念,2,medium,城东大道BRT站无障碍通道没人管，反映了,0.9,True,6,1,宜昌|民生|社区,xiaohongshu,https://www.xiaohongshu.com/explore/34db0458b42e92e388ad1df4,2026-06-13T12:00:00.000000,2026-04-04T22:09:26,111.27999,30.715818,526819.26,3399501.38,111.285638,30.713383,规划范围,
e0089,规划范围,三峡大学,东山供暖的收费不合理问题，已经反映多次,东山供暖的收费不合理问题，已经反映多次,19,relevant,社区,怀念,4,low,东山供暖的收费不合理问题，已经反映多次,0.75,True,6,3,社区|便民|宜昌|生活服务,xiaohongshu,https://www.xiaohongshu.com/explore/256f9decfccdd2f946178c05,2026-06-13T12:00:00.000000,2026-05-17T16:03:57,111.284925,30.711186,527293.27,3398989.04,111.290583,30.708754,规划范围,
e0090,规划范围,体育场路,对比前几年，CBD晚上光污染严重越来越严重了,对比前几年，CBD晚上光污染严重越来越严重了,22,relevant,城市,好奇,5,high,对比前几年，CBD晚上光污染严重越来越严,0.94,True,10,4,城市,xiaohongshu,https://www.xiaohongshu.com/explore/8aa2864159acb28a505f524a,2026-06-13T12:00:00.000000,2026-03-22T08:28:21,111.286977,30.710002,527490.17,3398858.28,111.292639,30.707572,规划范围,
e0091,规划范围,长江,白龙岗小区南门的楼道灯存在安全隐患,白龙岗小区南门的楼道灯存在安全隐患,17,relevant,社区,失望,3,medium,白龙岗小区南门的楼道灯存在安全隐患,0.91,True,54,3,社区|宜昌|民生,xiaohongshu,https://www.xiaohongshu.com/explore/68dbba5bb4afb3cc5c41219f,2026-06-13T12:00:00.000000,2026-05-11T06:09:15,111.301267,30.722078,528855.45,3400200.68,111.306965,30.719675,规划范围,
e0092,规划范围,三峡大学,江山多娇的河水发臭了，谁能来管管,江山多娇的河水发臭了，谁能来管管,16,relevant,城市,怀念,1,low,江山多娇的河水发臭了，谁能来管管,0.77,True,10,4,城市|生活|环境|宜昌,xiaohongshu,https://www.xiaohongshu.com/explore/7e8e5508a3f275e6096a1925,2026-06-13T12:00:00.000000,2026-04-25T08:11:52,111.284948,30.71349,527294.83,3399244.48,111.290606,30.711059,规划范围,
e0093,规划范围,白龙岗小区,滨江公园大门口晚上光污染严重，希望有关部门管管,,23,relevant,环境,失望,4,medium,滨江公园大门口晚上光污染严重，希望有关部,0.76,True,40,4,环境,dianping,https://www.dianping.com/review/25015001,2026-06-13T12:00:00.000000,2026-03-27T19:06:25,111.295298,30.699797,528290.24,3397728.97,111.300979,30.697374,规划范围,
e0094,规划范围,点军区,伍家岗区电梯终于要增加了，期待,伍家岗区电梯终于要增加了，期待,15,relevant,民生,喜爱,5,medium,伍家岗区电梯终于要增加了，期待,0.98,True,17,1,民生关注|宜昌身边事,weibo,https://weibo.com/4403877432/e2be72ee,2026-06-13T12:00:00.000000,2026-05-13T06:37:54,111.301213,30.707389,528854.65,3398572.16,111.306909,30.704979,规划范围,
e0095,规划范围,港窑路,江山多娇的小区门口乱倒建筑垃圾，谁能来管管,江山多娇的小区门口乱倒建筑垃圾，谁能来管管,21,relevant,城市,怀念,2,high,江山多娇的小区门口乱倒建筑垃圾，谁能来管,0.84,True,13,5,城市,xiaohongshu,https://www.xiaohongshu.com/explore/03ac78c939634398bcda0f58,2026-06-13T12:00:00.000000,2026-05-31T15:34:06,111.313497,30.744261,530019.98,3402663.22,111.31923,30.741891,规划范围,
e0096,规划范围,珍珠路,万达广场信报箱好几天没人修，打12345有用吗,万达广场信报箱好几天没人修，打12345有用吗,23,relevant,民生,好奇,4,low,万达广场信报箱好几天没人修，打12345,0.76,True,76,6,民生关注,weibo,https://weibo.com/7338640423/4da60dba,2026-06-13T12:00:00.000000,2026-05-23T03:52:34,111.291715,30.712884,527943.21,3399178.96,111.297388,30.710462,规划范围,
e0097,规划范围,体育场路,夷陵区的非遗活动很有意思，拍照超出片,夷陵区的非遗活动很有意思，拍照超出片,18,relevant,城市,期待,1,medium,夷陵区的非遗活动很有意思，拍照超出片,0.96,True,101,3,城市记忆|打卡宜昌,weibo,https://weibo.com/6540130461/628e7ba7,2026-06-13T12:00:00.000000,2026-04-16T10:12:39,111.293276,30.708217,528094.09,3398661.95,111.298952,30.705795,规划范围,
e0098,规划范围,东山公园,葛洲坝的老字号店铺值得打卡，周末带娃去了,葛洲坝的老字号店铺值得打卡，周末带娃去了,20,relevant,城市,好奇,5,high,葛洲坝的老字号店铺值得打卡，周末带娃去了,0.93,True,13,0,文化|打卡|城市记忆,xiaohongshu,https://www.xiaohongshu.com/explore/707478c5d6e77911f033eb1b,2026-06-13T12:00:00.000000,2026-06-07T10:41:28,111.308013,30.706577,529506.31,3398483.91,111.313727,30.704178,规划范围,
e0099,规划范围,绿萝路,早起夷陵广场散步，但广场舞音响太吵了体验很差,早起夷陵广场散步，但广场舞音响太吵了体验很差,22,relevant,城市,愤怒,2,high,早起夷陵广场散步，但广场舞音响太吵了体验,0.95,True,54,6,身边事|城市生活|宜昌环境,weibo,https://weibo.com/1687682903/44842441,2026-06-13T12:00:00.000000,2026-04-12T14:22:36,111.266597,30.682463,525545.17,3395800.36,111.272219,30.68,规划范围,
e0100,规划范围,长江,早起夷陵大道散步，但下水道反味体验很差,早起夷陵大道散步，但下水道反味体验很差,19,relevant,环境,喜爱,5,high,早起夷陵大道散步，但下水道反味体验很差,0.97,True,6,5,环境,xiaohongshu,https://www.xiaohongshu.com/explore/38656e49e08d1e60cf537c85,2026-06-13T12:00:00.000000,2026-04-05T18:20:28,111.289174,30.72085,527697.53,3400061.49,111.294842,30.718429,规划范围,
e0101,规划范围,发展大道,锦绣社区垃圾清运不及时，希望有关部门管管,锦绣社区垃圾清运不及时，希望有关部门管管,20,relevant,环境,满足,4,medium,锦绣社区垃圾清运不及时，希望有关部门管管,0.98,True,14,4,宜昌环境,weibo,https://weibo.com/9901530041/6299da77,2026-06-13T12:00:00.000000,2026-04-06T06:05:47,111.291811,30.746119,527942.81,3402863.6,111.297487,30.743714,规划范围,
e0102,规划范围,绿萝路,关注点军区道路要拓宽的最新进展,,15,relevant,城建,怀念,3,medium,关注点军区道路要拓宽的最新进展,0.92,True,21,2,城建,dianping,https://www.dianping.com/review/80330235,2026-06-13T12:00:00.000000,2026-04-28T10:46:41,111.319682,30.720058,530619.89,3399981.61,111.32543,30.717687,规划范围,
e0103,规划范围,沿江大道,江山多娇的下水道设计不合理，物业一直不解决,江山多娇的下水道设计不合理，物业一直不解决,21,relevant,城市,好奇,5,high,江山多娇的下水道设计不合理，物业一直不解,0.71,True,148,1,民生|宜昌|城市生活|社区,xiaohongshu,https://www.xiaohongshu.com/explore/92d9fe5dddff319217b87e14,2026-06-13T12:00:00.000000,2026-05-11T00:24:58,111.292451,30.712064,528013.94,3399088.24,111.298126,30.709643,规划范围,
e0104,规划范围,白龙岗小区,原来长江博物馆免费开放了，今天才发现,原来长江博物馆免费开放了，今天才发现,18,relevant,城市,期待,5,medium,原来长江博物馆免费开放了，今天才发现,0.73,True,1,1,城市记忆|打卡宜昌|宜昌文化,weibo,https://weibo.com/8163182779/63ba13d5,2026-06-13T12:00:00.000000,2026-03-18T00:26:51,111.28483,30.7146,527283.21,3399367.51,111.290488,30.71217,规划范围,
e0105,规划范围,葛洲坝,宜昌街头艺术越来越多了，夷陵区是个好去处,宜昌街头艺术越来越多了，夷陵区是个好去处,20,relevant,城市,愤怒,2,medium,宜昌街头艺术越来越多了，夷陵区是个好去处,0.85,True,30,1,城市记忆|宜昌文化,weibo,https://weibo.com/7164446117/0bfa8a58,2026-06-13T12:00:00.000000,2026-05-26T06:36:57,111.249172,30.688779,523873.96,3396496.74,111.254776,30.686314,规划范围,
e0106,规划范围,夷陵区,葛洲坝公园消防设施终于要修好了，期待,葛洲坝公园消防设施终于要修好了，期待,18,relevant,城市,怀念,5,medium,葛洲坝公园消防设施终于要修好了，期待,0.72,True,5,1,民生关注|城市设施,weibo,https://weibo.com/7143777373/6220c504,2026-06-13T12:00:00.000000,2026-05-08T18:46:29,111.272393,30.704345,526094.66,3398227.63,111.278026,30.701897,规划范围,
e0107,规划范围,城东大道,每天路过胜利四路滨江，监控坏了太危险了,每天路过胜利四路滨江，监控坏了太危险了,19,relevant,社区,中性,3,low,每天路过胜利四路滨江，监控坏了太危险了,0.87,True,4,1,民生|社区|宜昌,xiaohongshu,https://www.xiaohongshu.com/explore/9c673cb6555de798c90839c9,2026-06-13T12:00:00.000000,2026-05-30T09:04:25,111.329765,30.721745,531585.12,3400171.44,111.335542,30.719394,规划范围,
e0108,规划范围,三峡大学,住在三峡大学图书馆，防盗门早该换了真是受够了,住在三峡大学图书馆，防盗门早该换了真是受够了,22,relevant,城市,怀念,4,medium,住在三峡大学图书馆，防盗门早该换了真是受,0.91,True,7386,505,民生|宜昌|城市生活,xiaohongshu,https://www.xiaohongshu.com/explore/de90e640a463075239675fbf,2026-06-13T12:00:00.000000,2026-04-16T09:50:47,111.263726,30.690638,525267.94,3396706.03,111.269345,30.688177,规划范围,
e0109,规划范围,国贸大厦,国贸大厦的街区的历史感保留得很好，老宜昌人的记忆,国贸大厦的街区的历史感保留得很好，老宜昌人的记忆,24,relevant,城市,满足,2,high,国贸大厦的街区的历史感保留得很好，老宜昌,0.97,True,12,2,城市记忆|文化|宜昌,xiaohongshu,https://www.xiaohongshu.com/explore/47be78c11f9a9eb9461f3ce3,2026-06-13T12:00:00.000000,2026-05-08T23:19:49,111.3098,30.738156,529667.83,3401985.4,111.315522,30.735776,规划范围,
e0110,规划范围,东山公园,听说夷陵大道菜市场要搬迁，真的假的,,17,relevant,本地新闻,好奇,5,medium,听说夷陵大道菜市场要搬迁，真的假的,0.94,True,4,1,本地新闻,meituan,https://www.meituan.com/meishi/758585189/,2026-06-13T12:00:00.000000,2026-04-08T03:06:04,111.289655,30.709683,527746.8,3398823.57,111.295323,30.707257,规划范围,
e0111,规划范围,胜利四路,每次路过东山都闻到下水道反味,每次路过东山都闻到下水道反味,14,relevant,环境,喜爱,5,low,每次路过东山都闻到下水道反味,0.81,True,5,2,河道管理|噪音扰民,su12345,https://su12345.yichang.gov.cn/complaint/S2026861521,2026-06-13T12:00:00.000000,2026-04-16T12:45:14,111.293587,30.710311,528123.27,3398894.18,111.299264,30.707891,规划范围,
e0112,规划范围,锦绣社区,住在夷陵区，公共厕所早该换了真是受够了,住在夷陵区，公共厕所早该换了真是受够了,19,relevant,社区,失望,3,high,住在夷陵区，公共厕所早该换了真是受够了,0.92,True,115,2,社区|民生,xiaohongshu,https://www.xiaohongshu.com/explore/bbdb6928145462ada7b22415,2026-06-13T12:00:00.000000,2026-06-05T23:51:12,111.300567,30.744106,528781.86,3402642.65,111.306265,30.741713,规划范围,
e0113,规划范围,磨基山公园,对比隔壁发展大道，我们港窑路口的充电桩被占了,对比隔壁发展大道，我们港窑路口的充电桩被占了,22,relevant,民生,好奇,5,high,对比隔壁发展大道，我们港窑路口的充电桩被,0.71,True,7,3,民生|宜昌,xiaohongshu,https://www.xiaohongshu.com/explore/9722c2831f591cc8207bb604,2026-06-13T12:00:00.000000,2026-03-17T04:13:54,111.276555,30.698849,526494.87,3397619.3,111.282195,30.696402,规划范围,
e0114,规划范围,绿萝路,锦绣社区准备建垃圾中转站，有业主群吗求拉,锦绣社区准备建垃圾中转站，有业主群吗求拉,20,relevant,城建,好奇,3,high,锦绣社区准备建垃圾中转站，有业主群吗求拉,0.7,True,76,8,城建动态|民生实事|宜昌新闻,weibo,https://weibo.com/4559832611/531feea1,2026-06-13T12:00:00.000000,2026-04-21T05:34:25,111.283036,30.713449,527111.69,3399239.47,111.28869,30.711016,规划范围,
e0115,规划范围,西陵区,今天看到珍珠路小学要拆迁了的通告,今天看到珍珠路小学要拆迁了的通告,16,relevant,规划,期待,4,high,今天看到珍珠路小学要拆迁了的通告,0.79,True,8,4,规划|宜昌,xiaohongshu,https://www.xiaohongshu.com/explore/76034970eafde661d89bb4ae,2026-06-13T12:00:00.000000,2026-04-18T11:55:08,111.285287,30.716144,527326.55,3399538.8,111.290946,30.713715,规划范围,
e0116,规划范围,滨江公园,冬天的东山，文化节办得有声有色氛围很好,冬天的东山，文化节办得有声有色氛围很好,19,relevant,城市,喜爱,1,low,冬天的东山，文化节办得有声有色氛围很好,0.79,True,93,10,打卡宜昌|城市记忆,weibo,https://weibo.com/2300892985/91c4cc97,2026-06-13T12:00:00.000000,2026-05-10T12:49:48,111.282874,30.718067,527094.88,3399751.41,111.288528,30.715636,规划范围,
e0117,规划范围,西陵区,听说东山公园要建新的地铁站，真的假的,听说东山公园要建新的地铁站，真的假的,18,relevant,城建,愤怒,2,low,听说东山公园要建新的地铁站，真的假的,0.76,True,27,3,城建,dianping,https://www.dianping.com/review/17133689,2026-06-13T12:00:00.000000,2026-05-08T23:26:39,111.297239,30.708518,528473.63,3398696.32,111.302925,30.706102,规划范围,
e0118,规划范围,绿萝路,港窑路的银行比以前好多了,港窑路的银行比以前好多了,12,relevant,社区,愤怒,4,high,港窑路的银行比以前好多了,0.93,True,26,1,社区|便民,xiaohongshu,https://www.xiaohongshu.com/explore/cae2eea390d4af7f99917346,2026-06-13T12:00:00.000000,2026-06-01T00:34:26,111.281328,30.711042,526948.75,3398972.21,111.286978,30.708606,规划范围,
e0119,规划范围,东山,发展大道老旧小区加装电梯，大家已经签了同意书,发展大道老旧小区加装电梯，大家已经签了同意书,22,relevant,城建,期待,3,low,发展大道老旧小区加装电梯，大家已经签了同,0.77,True,2552,89,宜昌新闻|城建动态|民生实事,weibo,https://weibo.com/7817649142/665f1af5,2026-06-13T12:00:00.000000,2026-04-23T07:50:33,111.298474,30.719948,528588.57,3399963.82,111.304164,30.71754,规划范围,
e0120,规划范围,滨江公园,绿萝路小区的河道漂浮垃圾，谁能来管管,绿萝路小区的河道漂浮垃圾，谁能来管管,18,relevant,城市,中性,3,low,绿萝路小区的河道漂浮垃圾，谁能来管管,0.75,True,12,5,宜昌|城市|环境|生活,xiaohongshu,https://www.xiaohongshu.com/explore/5eaea7eb04e4da0500934df5,2026-06-13T12:00:00.000000,2026-04-04T11:22:36,111.279613,30.701698,526787.05,3397935.88,111.285259,30.699256,规划范围,
e0121,规划范围,胜利四路,周末去三峡大学逛了逛，博物馆免费开放了,周末去三峡大学逛了逛，博物馆免费开放了,19,relevant,城市,期待,2,high,周末去三峡大学逛了逛，博物馆免费开放了,0.81,True,8,5,城市记忆|宜昌|打卡|文化,xiaohongshu,https://www.xiaohongshu.com/explore/c30320ac1d672ca21a08ac0c,2026-06-13T12:00:00.000000,2026-04-19T08:10:23,111.272457,30.713285,526098.38,3399218.78,111.278091,30.710841,规划范围,
e0122,规划范围,夷陵大道,城东大道BRT站最近业主在投诉物业，邻居们都在讨论,,25,relevant,规划,喜爱,2,high,城东大道BRT站最近业主在投诉物业，邻居,0.85,True,6,2,规划,dianping,https://www.dianping.com/review/60578364,2026-06-13T12:00:00.000000,2026-05-16T22:10:17,111.281502,30.71403,526964.59,3399303.52,111.287153,30.711596,规划范围,
e0123,规划范围,运河公园,宜昌博物馆免费开放了，伍家岗区是个好去处,宜昌博物馆免费开放了，伍家岗区是个好去处,20,relevant,城市,愤怒,3,low,宜昌博物馆免费开放了，伍家岗区是个好去处,0.94,True,784,32,城市记忆,weibo,https://weibo.com/8362705638/94bc4f11,2026-06-13T12:00:00.000000,2026-03-23T11:46:18,111.268583,30.691084,525733.18,3396756.58,111.274209,30.688627,规划范围,
e0124,规划范围,点军区,东山大道垃圾桶好几天没人修，打12345有用吗,东山大道垃圾桶好几天没人修，打12345有用吗,23,relevant,城市,满足,3,low,东山大道垃圾桶好几天没人修，打12345,0.91,True,7,2,城市生活|宜昌|社区,xiaohongshu,https://www.xiaohongshu.com/explore/adf4b641d9bb817a39f53cbe,2026-06-13T12:00:00.000000,2026-06-08T07:15:40,111.279262,30.707733,526751.76,3398604.86,111.284908,30.705293,规划范围,
e0125,规划范围,东山,夷陵大道那边灰尘特别大，窗户都不敢开,,18,relevant,环境,中性,1,high,夷陵大道那边灰尘特别大，窗户都不敢开,0.81,True,15,3,环境,dianping,https://www.dianping.com/review/26249235,2026-06-13T12:00:00.000000,2026-05-10T06:28:54,111.322191,30.724773,530858.71,3400505.03,111.327946,30.722409,规划范围,
e0126,规划范围,城东大道,宜昌滨江的文化墙更新了，锦绣社区是个好去处,宜昌滨江的文化墙更新了，锦绣社区是个好去处,21,relevant,城市,喜爱,3,high,宜昌滨江的文化墙更新了，锦绣社区是个好去,0.88,True,7,1,城市记忆,weibo,https://weibo.com/3037751772/97c0e7b4,2026-06-13T12:00:00.000000,2026-04-11T19:28:08,111.245214,30.690151,523494.4,3396648.01,111.250815,30.687687,规划范围,
e0127,规划范围,万达广场,城东大道BRT站那边垃圾清运不及时,城东大道BRT站那边垃圾清运不及时,17,relevant,城市,中性,3,low,城东大道BRT站那边垃圾清运不及时,0.74,True,36,1,城市|生活|环境|宜昌,xiaohongshu,https://www.xiaohongshu.com/explore/338b44a22aefcd0951eb3c8a,2026-06-13T12:00:00.000000,2026-04-23T02:41:32,111.304963,30.746774,529202.01,3402939.57,111.310672,30.74439,规划范围,
e0128,规划范围,磨基山公园,磨基山公园的街头艺术越来越多了,磨基山公园的街头艺术越来越多了,15,relevant,城市,中性,4,high,磨基山公园的街头艺术越来越多了,0.81,True,11,2,城市记忆|打卡宜昌|宜昌文化,weibo,https://weibo.com/3611484281/24622805,2026-06-13T12:00:00.000000,2026-05-18T20:18:34,111.277043,30.705446,526539.82,3398350.79,111.282685,30.703003,规划范围,
e0129,规划范围,西陵区,水悦城星巴克最近要建新的地铁站，邻居们都在讨论,,23,relevant,本地新闻,中性,4,low,水悦城星巴克最近要建新的地铁站，邻居们都,0.88,True,15,1,本地新闻,meituan,https://www.meituan.com/meishi/527357843/,2026-06-13T12:00:00.000000,2026-04-03T12:53:12,111.298731,30.708329,528616.61,3398675.74,111.304421,30.705916,规划范围,
e0130,规划范围,珍珠路,吐槽夷陵区的垃圾桶，坏了,吐槽夷陵区的垃圾桶，坏了,12,relevant,民生,好奇,1,high,吐槽夷陵区的垃圾桶，坏了,0.86,True,110,2,宜昌身边事|民生关注,weibo,https://weibo.com/8612737415/f3da4ff9,2026-06-13T12:00:00.000000,2026-04-04T03:55:54,111.285388,30.707067,527338.79,3398532.5,111.291046,30.704634,规划范围,
e0131,规划范围,三峡大学,夷陵大道中医院的空气有异味问题，已经持续大半年了,夷陵大道中医院的空气有异味问题，已经持续大半年了,24,relevant,环境,愤怒,3,high,夷陵大道中医院的空气有异味问题，已经持续,0.77,True,39,4,环境|周边,dianping,https://www.dianping.com/review/27576661,2026-06-13T12:00:00.000000,2026-05-30T04:23:27,111.289522,30.723608,527730.07,3400367.34,111.295191,30.721188,规划范围,
e0132,规划范围,儿童公园,西陵一路新开了公交车，方便多了,西陵一路新开了公交车，方便多了,15,relevant,社区,好奇,5,low,西陵一路新开了公交车，方便多了,0.78,True,50,2,社区|生活服务|便民,xiaohongshu,https://www.xiaohongshu.com/explore/4274d4aeb9762e00c28d29ed,2026-06-13T12:00:00.000000,2026-04-23T08:17:38,111.298791,30.710071,528621.85,3398868.88,111.304481,30.707658,规划范围,
e0133,规划范围,东山,儿童公园北门公交车的办事效率太低问题，已经反映多次,儿童公园北门公交车的办事效率太低问题，已经反映多次,25,relevant,社区,期待,4,high,儿童公园北门公交车的办事效率太低问题，已,0.71,True,4,4,宜昌|便民|社区,xiaohongshu,https://www.xiaohongshu.com/explore/67a5c5e1ce976beae0ab64e3,2026-06-13T12:00:00.000000,2026-04-11T16:14:45,111.277645,30.714505,526595.0,3399355.26,111.283288,30.712067,规划范围,
e0134,规划范围,东山大道,分享一下运河公园规划方案公示了的最新消息,分享一下运河公园规划方案公示了的最新消息,20,relevant,规划,满足,3,medium,分享一下运河公园规划方案公示了的最新消息,0.82,True,17,1,新鲜事|宜昌|规划,xiaohongshu,https://www.xiaohongshu.com/explore/40bab91be19e96efeba65188,2026-06-13T12:00:00.000000,2026-04-16T17:28:42,111.26359,30.682464,525257.04,3395799.79,111.269208,30.68,规划范围,
e0135,规划范围,葛洲坝,葛洲坝公园的无障碍通道太旧了,,14,relevant,设施,喜爱,2,high,葛洲坝公园的无障碍通道太旧了,0.95,True,14,4,基础设施,meituan,https://www.meituan.com/meishi/426662024/,2026-06-13T12:00:00.000000,2026-05-22T20:04:17,111.319928,30.726482,530641.43,3400693.88,111.325677,30.724115,规划范围,
e0136,规划范围,儿童公园,均瑶广场的药店如果能改善一下就好了,均瑶广场的药店如果能改善一下就好了,17,relevant,民生,喜爱,4,medium,均瑶广场的药店如果能改善一下就好了,0.93,True,22,2,宜昌服务|民生,weibo,https://weibo.com/9020385583/c7e99578,2026-06-13T12:00:00.000000,2026-04-28T15:50:56,111.307959,30.74205,529490.34,3402416.63,111.313676,30.739669,规划范围,
e0137,规划范围,长江,CBD中央大街防盗门终于要修好了，期待,CBD中央大街防盗门终于要修好了，期待,19,relevant,城市,期待,4,high,CBD中央大街防盗门终于要修好了，期待,0.86,True,7,2,社区|民生|宜昌|城市生活,xiaohongshu,https://www.xiaohongshu.com/explore/829ae6062631403ac86c3df0,2026-06-13T12:00:00.000000,2026-05-23T00:35:58,111.290151,30.710309,527794.13,3398893.1,111.29582,30.707884,规划范围,
e0138,规划范围,港窑路,早起三峡大学散步，但工地天天施工，噪音太大了体验很差,早起三峡大学散步，但工地天天施工，噪音太大了体验很差,26,relevant,城市,好奇,3,low,早起三峡大学散步，但工地天天施工，噪音太,0.77,True,12,5,生活|环境|宜昌|城市,xiaohongshu,https://www.xiaohongshu.com/explore/22e96293e54f8d7cc06f6599,2026-06-13T12:00:00.000000,2026-05-15T01:28:40,111.274054,30.705113,526253.57,3398313.17,111.27969,30.702667,规划范围,
e0139,规划范围,滨江公园,住在儿童公园北门附近，灰尘特别大，窗户都不敢开，快受不了了,住在儿童公园北门附近，灰尘特别大，窗户都不敢开，快受不了了,29,relevant,城市,期待,1,low,住在儿童公园北门附近，灰尘特别大，窗户都,0.93,True,167,14,城市生活,weibo,https://weibo.com/4729036978/ec18fc52,2026-06-13T12:00:00.000000,2026-04-23T20:55:25,111.293835,30.701951,528149.46,3397967.41,111.299512,30.699527,规划范围,
e0140,规划范围,锦绣社区,在猇亭区社区医院办事效率太低，效率真的低,在猇亭区社区医院办事效率太低，效率真的低,20,relevant,民生,愤怒,3,low,在猇亭区社区医院办事效率太低，效率真的低,0.87,True,11,0,民生,weibo,https://weibo.com/1647254256/8882d031,2026-06-13T12:00:00.000000,2026-04-16T19:38:35,111.310385,30.747856,529720.87,3403060.96,111.316109,30.745482,规划范围,
e0141,规划范围,夷陵广场,分享一下国贸大厦公交线路要调整的最新消息,分享一下国贸大厦公交线路要调整的最新消息,20,relevant,城建,喜爱,1,low,分享一下国贸大厦公交线路要调整的最新消息,0.86,True,78,7,新鲜事|城建|宜昌,xiaohongshu,https://www.xiaohongshu.com/explore/1187366de4975a5adb741a1b,2026-06-13T12:00:00.000000,2026-04-03T07:38:12,111.299168,30.731344,528651.67,3401227.42,111.304861,30.728943,规划范围,
e0142,规划范围,儿童公园,体育场路加油站河水发臭了，希望有关部门管管,体育场路加油站河水发臭了，希望有关部门管管,21,relevant,环境,满足,5,high,体育场路加油站河水发臭了，希望有关部门管,0.88,True,3,2,噪音扰民|河道管理,su12345,https://su12345.yichang.gov.cn/complaint/S2026253682,2026-06-13T12:00:00.000000,2026-04-26T02:10:29,111.293891,30.715654,528150.84,3399486.61,111.29957,30.713237,规划范围,
e0143,规划范围,西陵一路,黄柏河的下水道如果能升级就好了,黄柏河的下水道如果能升级就好了,15,relevant,社区,好奇,4,high,黄柏河的下水道如果能升级就好了,0.97,True,5,0,社区,xiaohongshu,https://www.xiaohongshu.com/explore/8733ca217818b5a640c1fb5d,2026-06-13T12:00:00.000000,2026-04-10T07:56:05,111.294037,30.715679,528164.82,3399489.41,111.299716,30.713262,规划范围,
e0144,规划范围,长江,均瑶广场门口附近楼梯扶手需要增加，出行很不方便,均瑶广场门口附近楼梯扶手需要增加，出行很不方便,23,relevant,城市,怀念,3,medium,均瑶广场门口附近楼梯扶手需要增加，出行很,0.98,True,18,1,城市设施|宜昌身边事,weibo,https://weibo.com/7723577689/116ea0e0,2026-06-13T12:00:00.000000,2026-05-30T11:10:40,111.290572,30.698428,527837.87,3397576.01,111.296241,30.695998,规划范围,
e0145,规划范围,锦绣社区,滨江公园的博物馆免费开放了，拍照超出片,滨江公园的博物馆免费开放了，拍照超出片,19,relevant,城市,好奇,4,high,滨江公园的博物馆免费开放了，拍照超出片,0.83,True,12,3,打卡宜昌|宜昌文化|城市记忆,weibo,https://weibo.com/5058773924/6e4c03e6,2026-06-13T12:00:00.000000,2026-04-28T21:06:53,111.306628,30.711499,529372.14,3399029.23,111.312339,30.7091,规划范围,
e0146,规划范围,均瑶广场,东山公园的文创园搞得很不错，推荐大家去看看,东山公园的文创园搞得很不错，推荐大家去看看,21,relevant,设施,愤怒,2,low,东山公园的文创园搞得很不错，推荐大家去看,0.83,True,549,17,文化设施|公共空间,su12345,https://su12345.yichang.gov.cn/complaint/S2026495282,2026-06-13T12:00:00.000000,2026-03-28T18:27:01,111.301684,30.703586,528900.91,3398150.67,111.307381,30.701175,规划范围,
e0147,规划范围,磨基山公园,白龙岗小区南门公交站台早该换了，反映了好几次了,白龙岗小区南门公交站台早该换了，反映了好几次了,23,relevant,城市,期待,4,medium,白龙岗小区南门公交站台早该换了，反映了好,0.71,True,10,0,社区|城市生活|民生,xiaohongshu,https://www.xiaohongshu.com/explore/fdb588caf1662aa3b2995877,2026-06-13T12:00:00.000000,2026-03-22T09:16:31,111.283769,30.712076,527182.29,3399087.43,111.289424,30.709643,规划范围,
e0148,规划范围,黄柏河,锦绣社区的环境问题：渣土车半夜经过噪音大,锦绣社区的环境问题：渣土车半夜经过噪音大,20,relevant,城市,喜爱,4,low,锦绣社区的环境问题：渣土车半夜经过噪音大,0.98,True,7,3,宜昌|环境|城市|生活,xiaohongshu,https://www.xiaohongshu.com/explore/f489b7246233a5f82f654566,2026-06-13T12:00:00.000000,2026-05-19T00:10:45,111.300221,30.740331,528749.85,3402224.04,111.305917,30.737936,规划范围,
e0149,规划范围,胜利四路,长江瑞景的附近工厂排废气，谁能来管管,长江瑞景的附近工厂排废气，谁能来管管,18,relevant,城市,愤怒,5,medium,长江瑞景的附近工厂排废气，谁能来管管,0.82,True,10,1,城市生活|宜昌环境|身边事,weibo,https://weibo.com/8193187901/b96f1888,2026-06-13T12:00:00.000000,2026-03-31T14:00:22,111.298483,30.722462,528588.69,3400242.54,111.304174,30.720055,规划范围,
e0150,规划范围,均瑶广场,西陵区的供电如果能改善一下就好了,西陵区的供电如果能改善一下就好了,16,relevant,社区,怀念,3,high,西陵区的供电如果能改善一下就好了,0.9,True,19,5,社区服务|生活服务,meituan,https://www.meituan.com/meishi/338130993/,2026-06-13T12:00:00.000000,2026-04-19T07:36:56,111.313168,30.746622,529987.74,3402924.89,111.3189,30.744252,规划范围,
e0151,规划范围,西陵区,世纪山水要进行老旧管网改造，不知道什么时候动工,世纪山水要进行老旧管网改造，不知道什么时候动工,23,relevant,城建,喜爱,5,high,世纪山水要进行老旧管网改造，不知道什么时,0.91,True,10,4,宜昌新闻|城建动态|民生实事,weibo,https://weibo.com/2668757566/28f4f5b3,2026-06-13T12:00:00.000000,2026-04-17T16:11:26,111.297158,30.707978,528466.03,3398636.43,111.302844,30.705562,规划范围,
e0152,规划范围,东山公园,东山大道停车位被占了，反映了好几次了,东山大道停车位被占了，反映了好几次了,18,relevant,城市,好奇,2,medium,东山大道停车位被占了，反映了好几次了,0.76,True,4,4,城市设施|宜昌身边事|民生关注,weibo,https://weibo.com/4443155618/04c7c6ca,2026-06-13T12:00:00.000000,2026-04-07T01:30:15,111.309617,30.703431,529660.93,3398135.55,111.315335,30.701034,规划范围,
e0153,规划范围,均瑶广场,对比前几年，滨江公园大门口下水道反味越来越严重了,,24,relevant,环境,期待,2,high,对比前几年，滨江公园大门口下水道反味越来,0.96,True,6,5,周边|环境,dianping,https://www.dianping.com/review/44813621,2026-06-13T12:00:00.000000,2026-04-24T06:08:56,111.302964,30.739553,529012.76,3402138.49,111.308668,30.737162,规划范围,
e0154,规划范围,夷陵区,发展大道环境整治后好多了，但附近工厂排废气还是存在,,25,relevant,环境,满足,2,low,发展大道环境整治后好多了，但附近工厂排废,0.91,True,92,2,周边环境,meituan,https://www.meituan.com/meishi/317684136/,2026-06-13T12:00:00.000000,2026-04-15T22:26:42,111.304359,30.71098,529154.95,3398971.1,111.310064,30.708577,规划范围,
e0155,规划范围,猇亭区,三峡大学楼道灯不够用，反映了好几次了,三峡大学楼道灯不够用，反映了好几次了,18,relevant,城市,中性,4,high,三峡大学楼道灯不够用，反映了好几次了,0.79,True,0,4,社区|城市生活|宜昌,xiaohongshu,https://www.xiaohongshu.com/explore/7a226ee2b3d858776647c36c,2026-06-13T12:00:00.000000,2026-04-06T21:54:31,111.320911,30.748101,530728.71,3403090.96,111.326665,30.745747,规划范围,
e0156,规划范围,万达广场,关注白龙岗小区要建新的地铁站的最新进展,关注白龙岗小区要建新的地铁站的最新进展,19,relevant,城建,怀念,5,high,关注白龙岗小区要建新的地铁站的最新进展,0.75,True,26,6,宜昌|城建|新鲜事,xiaohongshu,https://www.xiaohongshu.com/explore/3b3e0cc98ae99c3336772d83,2026-06-13T12:00:00.000000,2026-04-03T05:19:13,111.277065,30.714393,526539.47,3399342.7,111.282707,30.711954,规划范围,
e0157,规划范围,万达广场,葛洲坝公园的小区门口乱倒建筑垃圾影响了周边居民生活,葛洲坝公园的小区门口乱倒建筑垃圾影响了周边居民生活,25,relevant,城市,好奇,3,high,葛洲坝公园的小区门口乱倒建筑垃圾影响了周,0.91,True,10,4,城市,xiaohongshu,https://www.xiaohongshu.com/explore/78059a81f0a83d5877f06974,2026-06-13T12:00:00.000000,2026-05-21T19:16:29,111.304665,30.752382,529171.79,3403561.23,111.310374,30.75,规划范围,
e0158,规划范围,伍家岗区,沿江大道的城市书房24小时开放值得一逛,沿江大道的城市书房24小时开放值得一逛,19,relevant,城市,中性,1,high,沿江大道的城市书房24小时开放值得一逛,0.76,True,39,7,城市记忆|文化|打卡|宜昌,xiaohongshu,https://www.xiaohongshu.com/explore/dfb0d72de1b7c69b273b4516,2026-06-13T12:00:00.000000,2026-04-14T04:47:11,111.301495,30.7345,528873.59,3401577.91,111.307194,30.732104,规划范围,
e0159,规划范围,伍家岗区,水悦城快递终于加强了，等了很久,水悦城快递终于加强了，等了很久,15,relevant,社区,期待,5,medium,水悦城快递终于加强了，等了很久,0.92,True,14,0,便民|社区|生活服务|宜昌,xiaohongshu,https://www.xiaohongshu.com/explore/513b67dbf0e8969b95f11eb9,2026-06-13T12:00:00.000000,2026-05-07T19:28:43,111.293012,30.710955,528068.0,3398965.43,111.298688,30.708534,规划范围,
e0160,规划范围,长江,住在国贸大厦附近，灰尘特别大，窗户都不敢开，快受不了了,住在国贸大厦附近，灰尘特别大，窗户都不敢开，快受不了了,27,relevant,环境,中性,2,high,住在国贸大厦附近，灰尘特别大，窗户都不敢,0.9,True,68,0,身边事|宜昌环境,weibo,https://weibo.com/5516266981/71bb99f9,2026-06-13T12:00:00.000000,2026-05-07T12:13:20,111.286124,30.710511,527408.32,3398914.5,111.291784,30.70808,规划范围,
e0161,规划范围,葛洲坝,锦绣社区门口公交线路要调整，大家听说补偿方案出来了,锦绣社区门口公交线路要调整，大家听说补偿方案出来了,25,relevant,城建,失望,3,low,锦绣社区门口公交线路要调整，大家听说补偿,0.78,True,6,5,新鲜事|城建|规划,xiaohongshu,https://www.xiaohongshu.com/explore/ee9cdb6b37e5925bfbb4e08f,2026-06-13T12:00:00.000000,2026-06-06T02:58:00,111.30022,30.748097,528747.45,3403085.02,111.305917,30.745706,规划范围,
e0162,规划范围,珍珠路,白龙岗小区环境整治后好多了，但空气有异味还是存在,白龙岗小区环境整治后好多了，但空气有异味还是存在,24,relevant,城市,喜爱,1,high,白龙岗小区环境整治后好多了，但空气有异味,0.82,True,23,4,环境|城市,xiaohongshu,https://www.xiaohongshu.com/explore/ae6b8fabb1639391e2578328,2026-06-13T12:00:00.000000,2026-04-03T06:11:37,111.287826,30.710688,527571.3,3398934.54,111.29349,30.70826,规划范围,
e0163,规划范围,西陵一路,关于绿萝路菜市场公交线路要调整，有知情人士吗,关于绿萝路菜市场公交线路要调整，有知情人士吗,22,relevant,规划,好奇,5,high,关于绿萝路菜市场公交线路要调整，有知情人,0.78,True,53,5,规划|宜昌,xiaohongshu,https://www.xiaohongshu.com/explore/82670198d6bcc00c30a5e855,2026-06-13T12:00:00.000000,2026-05-15T16:24:12,111.284265,30.699151,527233.43,3397654.62,111.28992,30.696713,规划范围,
e0164,规划范围,绿萝路,水悦城的垃圾清运不及时问题，已经持续大半年了,,22,relevant,环境,好奇,3,high,水悦城的垃圾清运不及时问题，已经持续大半,0.84,True,10,0,周边|环境,dianping,https://www.dianping.com/review/84318286,2026-06-13T12:00:00.000000,2026-06-06T22:17:04,111.290751,30.716881,527849.72,3399621.85,111.296422,30.71446,规划范围,
e0165,规划范围,珍珠路,城东大道要拆迁了，反对,城东大道要拆迁了，反对,11,relevant,城建,喜爱,4,medium,城东大道要拆迁了，反对,0.83,True,5,5,城建动态|民生实事,weibo,https://weibo.com/7027081221/a7453007,2026-06-13T12:00:00.000000,2026-03-16T01:45:12,111.271571,30.697122,526017.85,3397426.67,111.277202,30.69467,规划范围,
e0166,规划范围,运河公园,东辰壹号的河道漂浮垃圾，谁能来管管,东辰壹号的河道漂浮垃圾，谁能来管管,17,relevant,城市,期待,2,low,东辰壹号的河道漂浮垃圾，谁能来管管,0.76,True,3,5,城市生活|身边事,weibo,https://weibo.com/2426905651/21b24d91,2026-06-13T12:00:00.000000,2026-03-15T15:35:27,111.324043,30.727032,531035.37,3400755.99,111.329804,30.724673,规划范围,
e0167,规划范围,三峡大学,对比前几年，磨基山公园小区门口乱倒建筑垃圾越来越严重了,对比前几年，磨基山公园小区门口乱倒建筑垃圾越来越严重了,27,relevant,城市,失望,2,high,对比前几年，磨基山公园小区门口乱倒建筑垃,0.83,True,7,3,生活|城市|环境|宜昌,xiaohongshu,https://www.xiaohongshu.com/explore/3d1b0f5842df8115a49ef511,2026-06-13T12:00:00.000000,2026-03-28T20:34:51,111.28517,30.710997,527316.79,3398968.15,111.290828,30.708565,规划范围,
e0168,规划范围,体育场路,住在国贸负一楼附近，河道漂浮垃圾，快受不了了,住在国贸负一楼附近，河道漂浮垃圾，快受不了了,22,relevant,城市,失望,5,medium,住在国贸负一楼附近，河道漂浮垃圾，快受不,0.74,True,4612,123,生活|环境|宜昌|城市,xiaohongshu,https://www.xiaohongshu.com/explore/969b25264b8a5dd34ced706b,2026-06-13T12:00:00.000000,2026-05-11T19:14:24,111.281855,30.709242,526999.73,3398772.78,111.287506,30.706806,规划范围,
e0169,规划范围,夷陵广场,绿萝路菜市场环境整治后好多了，但广场舞音响太吵了还是存在,绿萝路菜市场环境整治后好多了，但广场舞音响太吵了还是存在,28,relevant,城市,满足,4,high,绿萝路菜市场环境整治后好多了，但广场舞音,0.98,True,3,4,城市生活|身边事,weibo,https://weibo.com/3106014794/7d65c131,2026-06-13T12:00:00.000000,2026-04-30T21:13:43,111.293508,30.714492,528114.49,3399357.68,111.299186,30.712074,规划范围,
e0170,规划范围,磨基山公园,原来珍珠路街头艺术越来越多了，今天才发现,原来珍珠路街头艺术越来越多了，今天才发现,20,relevant,城市,失望,2,medium,原来珍珠路街头艺术越来越多了，今天才发现,0.82,True,11,2,打卡宜昌|城市记忆|宜昌文化,weibo,https://weibo.com/2480332272/264ac5bb,2026-06-13T12:00:00.000000,2026-06-08T11:31:11,111.32147,30.734688,530786.5,3401604.07,111.327224,30.732328,规划范围,
e0171,规划范围,黄柏河,住在东山公园山顶，电梯好几天没人修真是受够了,,22,relevant,设施,喜爱,2,high,住在东山公园山顶，电梯好几天没人修真是受,0.7,True,6,1,基础设施,dianping,https://www.dianping.com/review/45681697,2026-06-13T12:00:00.000000,2026-05-29T18:14:11,111.320725,30.728798,530717.03,3400950.86,111.326477,30.726433,规划范围,
e0172,规划范围,云集路,宜昌文创园搞得很不错，滨江公园是个好去处,宜昌文创园搞得很不错，滨江公园是个好去处,20,relevant,城市,怀念,3,low,宜昌文创园搞得很不错，滨江公园是个好去处,0.94,True,31,3,文化|打卡|城市记忆|宜昌,xiaohongshu,https://www.xiaohongshu.com/explore/c88254f0923aa7589d0bfc6a,2026-06-13T12:00:00.000000,2026-04-01T10:55:50,111.294783,30.713649,528236.87,3399264.54,111.300464,30.711232,规划范围,
e0173,规划范围,白龙岗小区,儿童公园要通天然气了，希望早点落实,儿童公园要通天然气了，希望早点落实,17,relevant,城建,失望,3,medium,儿童公园要通天然气了，希望早点落实,0.92,True,43,3,城建动态,weibo,https://weibo.com/5824838936/99886274,2026-06-13T12:00:00.000000,2026-04-13T13:02:53,111.30388,30.746123,529098.5,3402867.12,111.309586,30.743737,规划范围,
e0174,规划范围,CBD,宜昌文化节办得有声有色，葛洲坝是个好去处,宜昌文化节办得有声有色，葛洲坝是个好去处,20,relevant,城市,怀念,2,low,宜昌文化节办得有声有色，葛洲坝是个好去处,0.81,True,4,5,城市记忆,weibo,https://weibo.com/2159087524/eb11aa4d,2026-06-13T12:00:00.000000,2026-05-15T10:28:10,111.277374,30.701925,526572.49,3397960.51,111.283016,30.69948,规划范围,
e0175,规划范围,体育场路,锦绣天下的绿化带被破坏了，谁能来管管,锦绣天下的绿化带被破坏了，谁能来管管,18,relevant,城市,满足,3,high,锦绣天下的绿化带被破坏了，谁能来管管,0.73,True,23,5,身边事|宜昌环境|城市生活,weibo,https://weibo.com/9438474178/c22326b4,2026-06-13T12:00:00.000000,2026-05-09T22:47:39,111.272176,30.708981,526072.62,3398741.55,111.277809,30.706535,规划范围,
e0176,规划范围,东山大道,发展大道的空气有异味影响了周边居民生活,,19,relevant,环境,失望,2,high,发展大道的空气有异味影响了周边居民生活,0.97,True,65,2,环境,dianping,https://www.dianping.com/review/24384906,2026-06-13T12:00:00.000000,2026-05-07T03:56:00,111.291194,30.721325,527890.87,3400114.65,111.296867,30.718907,规划范围,
e0177,规划范围,夷陵区,今天看到城东大道BRT站准备建垃圾中转站的通告,今天看到城东大道BRT站准备建垃圾中转站的通告,23,relevant,城建,怀念,1,high,今天看到城东大道BRT站准备建垃圾中转站,0.92,True,3,5,宜昌新闻|城建动态|民生实事,weibo,https://weibo.com/4877004673/1121e2bb,2026-06-13T12:00:00.000000,2026-06-08T01:32:39,111.295513,30.722241,528304.28,3400217.28,111.301196,30.719829,规划范围,
e0178,规划范围,水悦城,周末去锦绣社区逛了逛，文化节办得有声有色,周末去锦绣社区逛了逛，文化节办得有声有色,20,relevant,城市,中性,2,medium,周末去锦绣社区逛了逛，文化节办得有声有色,0.76,True,2,1,城市记忆|宜昌文化|打卡宜昌,weibo,https://weibo.com/9388562395/b2d0ddd9,2026-06-13T12:00:00.000000,2026-05-28T18:26:36,111.283638,30.712406,527169.65,3399123.99,111.289293,30.709973,规划范围,
e0179,规划范围,点军区,CBD开发商跑路了，对周边房价有影响吗,CBD开发商跑路了，对周边房价有影响吗,19,relevant,城建,中性,3,low,CBD开发商跑路了，对周边房价有影响吗,0.87,True,17,6,新鲜事|规划|城建,xiaohongshu,https://www.xiaohongshu.com/explore/cae4431ff5641a08dfc8d291,2026-06-13T12:00:00.000000,2026-04-08T23:20:03,111.311787,30.723971,529862.48,3400413.3,111.317513,30.721587,规划范围,
e0180,规划范围,胜利四路,黄柏河准备建垃圾中转站，有业主群吗求拉,,19,relevant,本地新闻,期待,3,high,黄柏河准备建垃圾中转站，有业主群吗求拉,0.97,True,8039,291,本地新闻,meituan,https://www.meituan.com/meishi/346378402/,2026-06-13T12:00:00.000000,2026-03-28T09:41:21,111.309129,30.746122,529601.13,3402868.38,111.31485,30.743745,规划范围,
e0181,规划范围,沿江大道,港窑路新装的路灯挺好的，给社区点赞,港窑路新装的路灯挺好的，给社区点赞,17,relevant,城市,中性,5,medium,港窑路新装的路灯挺好的，给社区点赞,0.87,True,83,8,城市设施|民生关注,weibo,https://weibo.com/5803604298/fd5345ac,2026-06-13T12:00:00.000000,2026-06-01T17:47:44,111.293026,30.704559,528071.2,3398256.34,111.298702,30.702135,规划范围,
e0182,规划范围,点军区,吐槽一下城东大道的维修服务,吐槽一下城东大道的维修服务,13,relevant,社区,好奇,1,medium,吐槽一下城东大道的维修服务,0.97,True,3,1,宜昌|便民|社区,xiaohongshu,https://www.xiaohongshu.com/explore/8ce7226a56b981e6fb64d93b,2026-06-13T12:00:00.000000,2026-05-11T18:27:04,111.293819,30.717785,528143.33,3399722.84,111.299498,30.715369,规划范围,
e0183,规划范围,东山,分享一下夷陵广场喷泉道路要拓宽的最新消息,分享一下夷陵广场喷泉道路要拓宽的最新消息,20,relevant,城建,中性,2,medium,分享一下夷陵广场喷泉道路要拓宽的最新消息,0.83,True,4,5,城建,dianping,https://www.dianping.com/review/36006912,2026-06-13T12:00:00.000000,2026-03-20T18:32:47,111.292084,30.722584,527975.75,3400254.45,111.297759,30.720167,规划范围,
e0184,规划范围,猇亭区,猇亭区社区文化中心活动丰富，很有特色,猇亭区社区文化中心活动丰富，很有特色,18,relevant,设施,喜爱,2,high,猇亭区社区文化中心活动丰富，很有特色,0.76,True,57,7,文化设施|公共空间,su12345,https://su12345.yichang.gov.cn/complaint/S2026347129,2026-06-13T12:00:00.000000,2026-05-15T06:50:34,111.274868,30.710214,526330.16,3398878.88,111.280506,30.707771,规划范围,
e0185,规划范围,绿萝路,葛洲坝河道漂浮垃圾，希望有关部门管管,葛洲坝河道漂浮垃圾，希望有关部门管管,18,relevant,城市,好奇,2,medium,葛洲坝河道漂浮垃圾，希望有关部门管管,0.89,True,26,7,宜昌环境|城市生活,weibo,https://weibo.com/9792184116/5741d57b,2026-06-13T12:00:00.000000,2026-05-11T17:35:44,111.276217,30.70757,526460.11,3398586.07,111.281857,30.705127,规划范围,
e0186,规划范围,胜利四路,秋天的白龙岗小区，街头艺术越来越多了氛围很好,秋天的白龙岗小区，街头艺术越来越多了氛围很好,22,relevant,城市,期待,5,high,秋天的白龙岗小区，街头艺术越来越多了氛围,0.99,True,53,2,城市记忆,weibo,https://weibo.com/3704129151/7e05addb,2026-06-13T12:00:00.000000,2026-06-09T18:23:00,111.289583,30.720178,527736.9,3399987.09,111.295252,30.717757,规划范围,
e0187,规划范围,葛洲坝,磨基山森林公园小区门口乱倒建筑垃圾，希望有关部门管管,磨基山森林公园小区门口乱倒建筑垃圾，希望有关部门管管,26,relevant,城市,中性,4,medium,磨基山森林公园小区门口乱倒建筑垃圾，希望,0.87,True,5,4,城市生活,weibo,https://weibo.com/4338455670/18f3914d,2026-06-13T12:00:00.000000,2026-04-08T18:55:18,111.312646,30.718318,529946.5,3399786.81,111.318374,30.715933,规划范围,
e0188,规划范围,伍家岗区,分享一下葛洲坝公园老旧小区加装电梯的最新消息,分享一下葛洲坝公园老旧小区加装电梯的最新消息,22,relevant,城建,中性,4,medium,分享一下葛洲坝公园老旧小区加装电梯的最新,0.82,True,560,39,城建|宜昌|新鲜事,xiaohongshu,https://www.xiaohongshu.com/explore/75ac179073bc2745d3f3dee2,2026-06-13T12:00:00.000000,2026-03-19T18:37:29,111.244399,30.699311,523414.1,3397663.37,111.25,30.696851,规划范围,
e0189,规划范围,儿童公园,云集路商场那边空气有异味,云集路商场那边空气有异味,12,relevant,城市,怀念,4,low,云集路商场那边空气有异味,0.98,True,9550,480,生活|宜昌|环境|城市,xiaohongshu,https://www.xiaohongshu.com/explore/65afe13a2474d54a6c24c173,2026-06-13T12:00:00.000000,2026-03-25T04:30:50,111.278914,30.707056,526718.61,3398529.72,111.284559,30.704615,规划范围,
e0190,规划范围,黄柏河,胜利四路滨江规划方案公示了，希望早点落实,胜利四路滨江规划方案公示了，希望早点落实,20,relevant,规划,怀念,5,medium,胜利四路滨江规划方案公示了，希望早点落实,0.8,True,84,7,规划,xiaohongshu,https://www.xiaohongshu.com/explore/173f0eb44a66a3296cd40164,2026-06-13T12:00:00.000000,2026-03-19T23:10:00,111.274765,30.714829,526319.04,3399390.5,111.280403,30.712388,规划范围,
e0191,规划范围,云集路,发展大道业主在投诉物业，大家这对我们有影响吗,发展大道业主在投诉物业，大家这对我们有影响吗,22,relevant,城建,中性,4,medium,发展大道业主在投诉物业，大家这对我们有影,0.9,True,32,1,民生实事|城建动态|宜昌新闻,weibo,https://weibo.com/1737962922/db86cdd3,2026-06-13T12:00:00.000000,2026-03-17T20:33:55,111.26883,30.694364,525755.98,3397120.27,111.274457,30.691908,规划范围,
e0192,规划范围,黄柏河,对比隔壁西陵一路，我们葛洲坝的快递柜需要增加,对比隔壁西陵一路，我们葛洲坝的快递柜需要增加,22,relevant,城市,怀念,4,low,对比隔壁西陵一路，我们葛洲坝的快递柜需要,0.86,True,150,11,宜昌|民生|社区|城市生活,xiaohongshu,https://www.xiaohongshu.com/explore/2d3ecdd79be246f3b1050d39,2026-06-13T12:00:00.000000,2026-04-18T16:49:32,111.293896,30.72546,528148.47,3400573.75,111.299575,30.723047,规划范围,
e0193,规划范围,儿童公园,宜昌老建筑翻新后挺有味道，夷陵区是个好去处,宜昌老建筑翻新后挺有味道，夷陵区是个好去处,21,relevant,设施,好奇,3,medium,宜昌老建筑翻新后挺有味道，夷陵区是个好去,0.75,True,5,5,文化设施,su12345,https://su12345.yichang.gov.cn/complaint/S2026113795,2026-06-13T12:00:00.000000,2026-06-03T19:35:20,111.257187,30.700047,524639.04,3397747.7,111.262799,30.697588,规划范围,
e0194,规划范围,夷陵广场,云集路的消防设施坏了,云集路的消防设施坏了,10,relevant,城市,好奇,4,high,云集路的消防设施坏了,0.72,True,3,5,社区|城市生活,xiaohongshu,https://www.xiaohongshu.com/explore/ca4dadc73db986cc52f52d35,2026-06-13T12:00:00.000000,2026-05-07T14:24:27,111.289773,30.709174,527758.25,3398767.17,111.295441,30.706748,规划范围,
e0195,规划范围,沿江大道,早起水悦城星巴克散步，但空气有异味体验很差,早起水悦城星巴克散步，但空气有异味体验很差,21,relevant,城市,满足,3,low,早起水悦城星巴克散步，但空气有异味体验很,0.91,True,25,5,城市|环境,xiaohongshu,https://www.xiaohongshu.com/explore/693cc780dceb0962babe0fc0,2026-06-13T12:00:00.000000,2026-05-26T15:56:57,111.282042,30.710625,527017.26,3398926.15,111.287694,30.70819,规划范围,
e0196,规划范围,均瑶广场,每天路过均瑶广场，信报箱被占了太危险了,每天路过均瑶广场，信报箱被占了太危险了,19,relevant,城市,怀念,3,low,每天路过均瑶广场，信报箱被占了太危险了,0.92,True,4,2,城市设施|宜昌身边事,weibo,https://weibo.com/4761577160/48fb8bab,2026-06-13T12:00:00.000000,2026-03-20T03:22:36,111.278906,30.704612,526718.52,3398258.77,111.284551,30.70217,规划范围,
e0197,规划范围,城东大道,城东大道BRT站附近快递柜不够用，出行很不方便,城东大道BRT站附近快递柜不够用，出行很不方便,23,relevant,城市,怀念,3,high,城东大道BRT站附近快递柜不够用，出行很,0.74,True,2,2,城市设施,weibo,https://weibo.com/1129497415/2042e267,2026-06-13T12:00:00.000000,2026-04-04T08:38:54,111.281056,30.711158,526922.66,3398985.0,111.286706,30.708722,规划范围,
e0198,规划范围,白龙岗小区,东山大道的绿化终于早该换了了,东山大道的绿化终于早该换了了,14,relevant,城市,喜爱,4,medium,东山大道的绿化终于早该换了了,0.84,True,4,1,城市设施,weibo,https://weibo.com/6433314265/6f186a8a,2026-06-13T12:00:00.000000,2026-05-15T12:08:33,111.329797,30.719239,531589.01,3399893.62,111.335574,30.716887,规划范围,
e0199,规划范围,东山,云集路超市终于改善了，等了很久,云集路超市终于改善了，等了很久,15,relevant,社区,愤怒,2,high,云集路超市终于改善了，等了很久,0.94,True,10,0,公共交通|社区服务,su12345,https://su12345.yichang.gov.cn/complaint/S2026187462,2026-06-13T12:00:00.000000,2026-04-11T01:52:15,111.259635,30.682726,524878.01,3395827.95,111.265248,30.68026,规划范围,
e0200,规划范围,锦绣社区,住在国贸大厦最不方便的就是物业费投诉了好几次没用,住在国贸大厦最不方便的就是物业费投诉了好几次没用,24,relevant,社区,好奇,2,low,住在国贸大厦最不方便的就是物业费投诉了好,0.97,True,217,4,生活服务|宜昌|社区|便民,xiaohongshu,https://www.xiaohongshu.com/explore/c11b4a00aa8253b98af0634e,2026-06-13T12:00:00.000000,2026-06-09T00:18:18,111.269843,30.693612,525853.23,3397037.13,111.275471,30.691157,规划范围,
e0201,规划范围,滨江公园,早起锦绣社区门口散步，但河水发臭了体验很差,早起锦绣社区门口散步，但河水发臭了体验很差,21,relevant,城市,中性,3,high,早起锦绣社区门口散步，但河水发臭了体验很,0.92,True,65,3,生活|环境|宜昌|城市,xiaohongshu,https://www.xiaohongshu.com/explore/4b51c0fc2cd5846ce5af46e5,2026-06-13T12:00:00.000000,2026-05-28T08:34:10,111.269503,30.698153,525819.45,3397540.49,111.275131,30.6957,规划范围,
e0202,规划范围,均瑶广场,西陵区的环境问题：下水道反味,西陵区的环境问题：下水道反味,14,relevant,环境,满足,4,low,西陵区的环境问题：下水道反味,0.95,True,547,38,生活|环境,xiaohongshu,https://www.xiaohongshu.com/explore/3582f2207fac829aa61b7757,2026-06-13T12:00:00.000000,2026-03-13T17:49:44,111.253092,30.682468,524251.12,3395797.92,111.258698,30.68,规划范围,
e0203,规划范围,西陵一路,西陵一路电梯终于要换新了，期待,西陵一路电梯终于要换新了，期待,15,relevant,城市,中性,4,low,西陵一路电梯终于要换新了，期待,0.88,True,6,0,社区|宜昌|城市生活,xiaohongshu,https://www.xiaohongshu.com/explore/979515fbc20a6d6e0f738098,2026-06-13T12:00:00.000000,2026-03-19T17:16:16,111.292962,30.724996,528059.15,3400522.08,111.298639,30.722582,规划范围,
e0204,规划范围,沿江大道,沿江大道中段护栏存在安全隐患，打12345有用吗,沿江大道中段护栏存在安全隐患，打12345有用吗,24,relevant,城市,怀念,2,high,沿江大道中段护栏存在安全隐患，打1234,0.98,True,155,8,民生|城市生活,xiaohongshu,https://www.xiaohongshu.com/explore/d62a285a8f01f016e60f39b2,2026-06-13T12:00:00.000000,2026-03-24T02:11:26,111.244399,30.689218,523416.53,3396544.41,111.25,30.686754,规划范围,
e0205,规划范围,万达广场,胜利四路最近垃圾清运不及时，居民意见很大,胜利四路最近垃圾清运不及时，居民意见很大,20,relevant,城市,愤怒,1,low,胜利四路最近垃圾清运不及时，居民意见很大,0.81,True,5,3,城市|环境,xiaohongshu,https://www.xiaohongshu.com/explore/1fdc07f108e865aca3b868e2,2026-06-13T12:00:00.000000,2026-04-24T16:45:47,111.313132,30.734538,529988.03,3401585.18,111.318863,30.732162,规划范围,
e0206,规划范围,沿江大道,珍珠路小学新装的公交站台挺好的，给社区点赞,珍珠路小学新装的公交站台挺好的，给社区点赞,21,relevant,社区,期待,5,low,珍珠路小学新装的公交站台挺好的，给社区点,0.73,True,54,3,社区|民生,xiaohongshu,https://www.xiaohongshu.com/explore/b331fabc15f2de3449252d84,2026-06-13T12:00:00.000000,2026-05-02T15:54:38,111.320421,30.738517,530684.83,3402028.28,111.326173,30.736157,规划范围,
e0207,规划范围,发展大道,夷陵大道的快递柜如果能修好就好了,夷陵大道的快递柜如果能修好就好了,16,relevant,设施,好奇,4,medium,夷陵大道的快递柜如果能修好就好了,0.93,True,1,1,公共设施|市政设施,su12345,https://su12345.yichang.gov.cn/complaint/S2026137047,2026-06-13T12:00:00.000000,2026-05-11T04:43:47,111.311433,30.725913,529827.98,3400628.51,111.317158,30.72353,规划范围,
e0208,规划范围,体育场路,体育场路加油站附近楼梯扶手太旧了，出行很不方便,体育场路加油站附近楼梯扶手太旧了，出行很不方便,23,relevant,城市,失望,5,low,体育场路加油站附近楼梯扶手太旧了，出行很,0.83,True,4,0,城市生活|社区|民生,xiaohongshu,https://www.xiaohongshu.com/explore/ee760b86312ba59f263a281c,2026-06-13T12:00:00.000000,2026-06-10T06:13:36,111.314198,30.748036,530085.93,3403081.93,111.319933,30.745669,规划范围,
e0209,规划范围,三峡大学,沿江大道的楼梯扶手如果能更新就好了,沿江大道的楼梯扶手如果能更新就好了,17,relevant,民生,喜爱,4,low,沿江大道的楼梯扶手如果能更新就好了,0.86,True,6,4,宜昌身边事|民生关注,weibo,https://weibo.com/8938125123/08cdef3c,2026-06-13T12:00:00.000000,2026-04-24T01:32:01,111.27784,30.715421,526613.43,3399456.86,111.283484,30.712983,规划范围,
e0210,规划范围,锦绣社区,CBD中央大街绿化带被破坏了，希望有关部门管管,CBD中央大街绿化带被破坏了，希望有关部门管管,23,relevant,城市,喜爱,1,high,CBD中央大街绿化带被破坏了，希望有关部,0.91,True,11883,80,城市生活,weibo,https://weibo.com/2995817621/41616723,2026-06-13T12:00:00.000000,2026-05-21T05:23:54,111.27109,30.712429,525967.66,3399123.57,111.276722,30.709984,规划范围,
e0211,规划范围,港窑路,早起沿江大道散步，但晚上光污染严重体验很差,早起沿江大道散步，但晚上光污染严重体验很差,21,relevant,城市,中性,1,medium,早起沿江大道散步，但晚上光污染严重体验很,0.78,True,75,3,环境|生活|城市|宜昌,xiaohongshu,https://www.xiaohongshu.com/explore/581ce7699940297e9c567cef,2026-06-13T12:00:00.000000,2026-04-08T10:37:24,111.27513,30.713105,526354.47,3399199.45,111.280769,30.710664,规划范围,
e0212,规划范围,体育场路,周末去夷陵区逛了逛，文化节办得有声有色,周末去夷陵区逛了逛，文化节办得有声有色,19,relevant,设施,期待,2,high,周末去夷陵区逛了逛，文化节办得有声有色,0.82,True,3,3,公共空间|文化设施,su12345,https://su12345.yichang.gov.cn/complaint/S2026571116,2026-06-13T12:00:00.000000,2026-05-07T02:38:39,111.291412,30.719868,527912.17,3399953.17,111.297085,30.717449,规划范围,
e0213,规划范围,沿江大道,儿童公园超市终于调整了，等了很久,儿童公园超市终于调整了，等了很久,16,relevant,民生,中性,3,high,儿童公园超市终于调整了，等了很久,0.86,True,13,4,宜昌服务|民生,weibo,https://weibo.com/6236013491/e484f984,2026-06-13T12:00:00.000000,2026-05-10T08:48:02,111.27663,30.694913,526503.13,3397182.95,111.28227,30.692464,规划范围,
e0214,规划范围,珍珠路,金色海岸的工地天天施工，噪音太大了，谁能来管管,金色海岸的工地天天施工，噪音太大了，谁能来管管,23,relevant,环境,中性,1,low,金色海岸的工地天天施工，噪音太大了，谁能,0.72,True,17,5,环境,xiaohongshu,https://www.xiaohongshu.com/explore/3f579088743ea508416a7308,2026-06-13T12:00:00.000000,2026-03-18T05:34:57,111.299106,30.72285,528648.24,3400285.71,111.304798,30.720444,规划范围,
e0215,规划范围,黄柏河,锦绣社区电梯坏了，打12345有用吗,锦绣社区电梯坏了，打12345有用吗,18,relevant,城市,喜爱,2,low,锦绣社区电梯坏了，打12345有用吗,0.84,True,7,5,城市生活|社区|宜昌,xiaohongshu,https://www.xiaohongshu.com/explore/0ce54856937271c40993b371,2026-06-13T12:00:00.000000,2026-04-08T00:07:02,111.288125,30.718596,527597.69,3399811.34,111.29379,30.716172,规划范围,
e0216,规划范围,葛洲坝,猇亭区路边烧烤油烟扰民，大家有没有同感,,19,relevant,环境,愤怒,5,low,猇亭区路边烧烤油烟扰民，大家有没有同感,0.93,True,121,5,周边|环境,dianping,https://www.dianping.com/review/50583938,2026-06-13T12:00:00.000000,2026-04-03T23:09:40,111.316213,30.720889,530287.36,3400072.8,111.321951,30.718512,规划范围,
e0217,规划范围,绿萝路,紫晶城的信报箱坏了，物业一直不解决,,17,relevant,设施,好奇,5,medium,紫晶城的信报箱坏了，物业一直不解决,0.73,True,4,4,基础设施,meituan,https://www.meituan.com/meishi/807520052/,2026-06-13T12:00:00.000000,2026-04-11T23:45:31,111.267809,30.705856,525655.12,3398394.09,111.273435,30.703405,规划范围,
e0218,规划范围,运河公园,东山公园山顶消防通道终于要修好了，期待,,19,relevant,设施,喜爱,2,medium,东山公园山顶消防通道终于要修好了，期待,0.85,True,58,2,公共设施,dianping,https://www.dianping.com/review/39526891,2026-06-13T12:00:00.000000,2026-04-29T03:31:38,111.279119,30.692217,526742.34,3396884.65,111.284763,30.68977,规划范围,
e0219,规划范围,黄柏河,国贸负一楼环境整治后好多了，但空气有异味还是存在,国贸负一楼环境整治后好多了，但空气有异味还是存在,24,relevant,城市,满足,2,medium,国贸负一楼环境整治后好多了，但空气有异味,0.86,True,400,20,宜昌|生活|环境|城市,xiaohongshu,https://www.xiaohongshu.com/explore/df2a2356369681451982641f,2026-06-13T12:00:00.000000,2026-04-26T23:00:12,111.312072,30.736218,529886.0,3401771.15,111.3178,30.733841,规划范围,
e0220,规划范围,黄柏河,磨基山公园的书画展今年规模很大,磨基山公园的书画展今年规模很大,15,relevant,城市,愤怒,3,low,磨基山公园的书画展今年规模很大,0.91,True,10,5,宜昌|文化|城市记忆,xiaohongshu,https://www.xiaohongshu.com/explore/0b99b04e7b59994488c2cf45,2026-06-13T12:00:00.000000,2026-04-27T14:26:34,111.317854,30.733693,530440.52,3401492.77,111.323598,30.731326,规划范围,
e0221,规划范围,城东大道,东山大道的健身器材不够用,东山大道的健身器材不够用,12,relevant,城市,失望,1,low,东山大道的健身器材不够用,0.84,True,11,5,城市设施|宜昌身边事,weibo,https://weibo.com/5280304705/9d627665,2026-06-13T12:00:00.000000,2026-04-04T17:18:57,111.253719,30.689752,524309.38,3396605.59,111.259326,30.687288,规划范围,
e0222,规划范围,东山公园,云集路商场垃圾桶坏了，打12345有用吗,云集路商场垃圾桶坏了，打12345有用吗,20,relevant,城市,满足,4,medium,云集路商场垃圾桶坏了，打12345有用吗,0.71,True,4,4,城市设施,weibo,https://weibo.com/6843485761/9b2d852c,2026-06-13T12:00:00.000000,2026-05-22T07:34:18,111.277921,30.712174,526622.08,3399096.9,111.283565,30.709735,规划范围,
e0223,规划范围,云集路,住在夷陵广场，下水道坏了真是受够了,住在夷陵广场，下水道坏了真是受够了,17,relevant,城市,期待,4,high,住在夷陵广场，下水道坏了真是受够了,0.78,True,11,4,城市设施,weibo,https://weibo.com/6358893010/27b35bdf,2026-06-13T12:00:00.000000,2026-03-26T08:39:24,111.277979,30.707171,526629.01,3398542.25,111.283622,30.704729,规划范围,
e0224,规划范围,东山大道,吐槽运河公园的绿化，被占了,吐槽运河公园的绿化，被占了,13,relevant,城市,期待,4,high,吐槽运河公园的绿化，被占了,0.93,True,2,1,社区|城市生活,xiaohongshu,https://www.xiaohongshu.com/explore/1badc9778f69046cac0360cf,2026-06-13T12:00:00.000000,2026-04-20T18:15:20,111.300659,30.71247,528800.07,3399135.33,111.306354,30.710062,规划范围,
e0225,规划范围,西陵区,国贸大厦旁边要盖商业综合体，大家反对,国贸大厦旁边要盖商业综合体，大家反对,18,relevant,城建,中性,5,low,国贸大厦旁边要盖商业综合体，大家反对,0.87,True,7,0,城建,xiaohongshu,https://www.xiaohongshu.com/explore/d28b928d33b58559f7c11a25,2026-06-13T12:00:00.000000,2026-03-26T22:16:18,111.299257,30.70673,528667.47,3398498.6,111.304948,30.704317,规划范围,
e0226,规划范围,滨江公园,东山大道长途站新装的电梯挺好的，给社区点赞,,21,relevant,设施,失望,4,medium,东山大道长途站新装的电梯挺好的，给社区点,0.81,True,6,3,公共设施|基础设施,dianping,https://www.dianping.com/review/52191157,2026-06-13T12:00:00.000000,2026-05-25T18:43:01,111.287148,30.708105,527507.09,3398648.01,111.29281,30.705675,规划范围,
e0227,规划范围,体育场路,珍珠路的健身器材如果能改造就好了,,16,relevant,设施,失望,3,high,珍珠路的健身器材如果能改造就好了,0.73,True,47,6,基础设施,meituan,https://www.meituan.com/meishi/917627750/,2026-06-13T12:00:00.000000,2026-03-18T11:22:54,111.299424,30.707036,528683.38,3398532.57,111.305116,30.704623,规划范围,
e0228,规划范围,CBD,滨江公园的滨江的文化墙更新了，周末带娃去了,滨江公园的滨江的文化墙更新了，周末带娃去了,21,relevant,城市,满足,3,medium,滨江公园的滨江的文化墙更新了，周末带娃去,0.91,True,104,9,城市记忆|打卡|宜昌,xiaohongshu,https://www.xiaohongshu.com/explore/3871a5a5793080a0b9737535,2026-06-13T12:00:00.000000,2026-04-12T20:30:44,111.32661,30.736281,531278.24,3401782.1,111.332379,30.733931,规划范围,
e0229,规划范围,锦绣社区,沿江大道中段那边公交线路要调整,沿江大道中段那边公交线路要调整,15,relevant,规划,愤怒,4,low,沿江大道中段那边公交线路要调整,0.81,True,10,1,规划,xiaohongshu,https://www.xiaohongshu.com/explore/837b49e86c354fb9381114fe,2026-06-13T12:00:00.000000,2026-04-14T08:01:32,111.31284,30.727859,529962.14,3400844.63,111.318569,30.725479,规划范围,
e0230,规划范围,东山,绿萝路新装的消防通道挺好的，给社区点赞,绿萝路新装的消防通道挺好的，给社区点赞,19,relevant,城市,怀念,3,high,绿萝路新装的消防通道挺好的，给社区点赞,0.97,True,10,0,宜昌|城市生活,xiaohongshu,https://www.xiaohongshu.com/explore/7cad14453c853d85c1b0412b,2026-06-13T12:00:00.000000,2026-03-24T17:39:53,111.295432,30.716772,528298.12,3399610.94,111.301114,30.714357,规划范围,
e0231,规划范围,沿江大道,夷陵大道要进行老旧管网改造，大家听说补偿方案出来了,夷陵大道要进行老旧管网改造，大家听说补偿方案出来了,25,relevant,本地新闻,中性,1,medium,夷陵大道要进行老旧管网改造，大家听说补偿,0.72,True,40,0,本地新闻,meituan,https://www.meituan.com/meishi/703465088/,2026-06-13T12:00:00.000000,2026-03-22T13:38:10,111.283933,30.713053,527197.72,3399195.79,111.289589,30.710621,规划范围,
e0232,规划范围,伍家岗区,虹桥国际规划方案公示了，不知道什么时候动工,,21,relevant,城建,怀念,1,high,虹桥国际规划方案公示了，不知道什么时候动,0.83,True,8,0,城建|规划,dianping,https://www.dianping.com/review/50962725,2026-06-13T12:00:00.000000,2026-06-05T10:00:02,111.282068,30.715326,527018.44,3399447.33,111.28772,30.712893,规划范围,
e0233,规划范围,万达广场,周末去云集路逛了逛，街区的历史感保留得很好,周末去云集路逛了逛，街区的历史感保留得很好,21,relevant,城市,满足,1,medium,周末去云集路逛了逛，街区的历史感保留得很,0.95,True,12,2,城市记忆|宜昌,xiaohongshu,https://www.xiaohongshu.com/explore/679f4a7dcac62d304c9aeea7,2026-06-13T12:00:00.000000,2026-05-22T10:29:24,111.299804,30.73463,528711.61,3401591.89,111.305499,30.732231,规划范围,
e0234,规划范围,夷陵广场,点军区银行的态度特别差问题，已经反映多次,点军区银行的态度特别差问题，已经反映多次,20,relevant,民生,怀念,5,low,点军区银行的态度特别差问题，已经反映多次,0.72,True,90,3,生活便利|民生|宜昌服务,weibo,https://weibo.com/7700320223/e66d7db8,2026-06-13T12:00:00.000000,2026-06-01T13:07:10,111.283977,30.711437,527202.39,3399016.64,111.289633,30.709004,规划范围,
e0235,规划范围,万达广场,分享一下西陵一路要拆迁了的最新消息,分享一下西陵一路要拆迁了的最新消息,17,relevant,规划,满足,3,low,分享一下西陵一路要拆迁了的最新消息,0.76,True,5,0,规划|宜昌|新鲜事,xiaohongshu,https://www.xiaohongshu.com/explore/10b4d00b34022a73a31a9824,2026-06-13T12:00:00.000000,2026-05-28T23:33:27,111.299825,30.728358,528715.48,3400896.54,111.305519,30.725956,规划范围,
e0236,规划范围,东山,春天的东山公园，老字号店铺值得打卡氛围很好,春天的东山公园，老字号店铺值得打卡氛围很好,21,relevant,城市,中性,2,medium,春天的东山公园，老字号店铺值得打卡氛围很,0.99,True,31,1,城市记忆|打卡宜昌,weibo,https://weibo.com/5014136336/76112630,2026-06-13T12:00:00.000000,2026-03-23T05:26:06,111.292306,30.710123,528000.62,3398873.01,111.29798,30.707701,规划范围,
e0237,规划范围,云集路,绿萝路菜市场的药店管理混乱,绿萝路菜市场的药店管理混乱,13,relevant,社区,中性,5,medium,绿萝路菜市场的药店管理混乱,0.97,True,245,17,宜昌|生活服务|社区,xiaohongshu,https://www.xiaohongshu.com/explore/032f8b9ec57ffd562342529b,2026-06-13T12:00:00.000000,2026-04-05T10:54:04,111.310561,30.738634,529740.56,3402038.6,111.316285,30.736256,规划范围,
e0238,规划范围,运河公园,住在儿童公园附近，路边烧烤油烟扰民，快受不了了,住在儿童公园附近，路边烧烤油烟扰民，快受不了了,23,relevant,城市,中性,4,low,住在儿童公园附近，路边烧烤油烟扰民，快受,0.95,True,12,0,城市|生活,xiaohongshu,https://www.xiaohongshu.com/explore/c5dac71528188928d3525bdb,2026-06-13T12:00:00.000000,2026-04-22T15:50:44,111.301012,30.712503,528833.88,3399139.08,111.306708,30.710095,规划范围,
e0239,规划范围,城东大道,锦绣社区的保安比以前好多了,锦绣社区的保安比以前好多了,13,relevant,社区,怀念,4,high,锦绣社区的保安比以前好多了,0.81,True,940,54,社区,xiaohongshu,https://www.xiaohongshu.com/explore/9eede1fc0d7bd987610dbd42,2026-06-13T12:00:00.000000,2026-03-14T21:55:58,111.315488,30.731086,530214.74,3401203.1,111.321225,30.728713,规划范围,
e0240,规划范围,云集路,关注运河公园小区要改造了的最新进展,关注运河公园小区要改造了的最新进展,17,relevant,城建,喜爱,5,medium,关注运河公园小区要改造了的最新进展,0.85,True,6,0,宜昌|规划|城建,xiaohongshu,https://www.xiaohongshu.com/explore/3918a4105371dc8e8c4dd271,2026-06-13T12:00:00.000000,2026-05-01T01:54:40,111.277161,30.701963,526552.07,3397964.67,111.282802,30.699518,规划范围,
e0241,规划范围,港窑路,每次路过城东大道都闻到河水发臭了,每次路过城东大道都闻到河水发臭了,16,relevant,环境,怀念,5,high,每次路过城东大道都闻到河水发臭了,0.86,True,5,2,身边事|宜昌环境,weibo,https://weibo.com/2695509901/c0c8282c,2026-06-13T12:00:00.000000,2026-04-25T06:42:10,111.262758,30.699407,525172.92,3397677.98,111.268376,30.69695,规划范围,
e0242,规划范围,城东大道,听说体育场路加油站在修路，真的假的,,17,relevant,本地新闻,中性,5,high,听说体育场路加油站在修路，真的假的,0.74,True,3,3,本地新闻,meituan,https://www.meituan.com/meishi/295393266/,2026-06-13T12:00:00.000000,2026-05-18T21:13:40,111.289645,30.703569,527747.59,3398145.74,111.295313,30.70114,规划范围,
e0243,规划范围,儿童公园,云集路业主在投诉物业，这次是真的要动了,云集路业主在投诉物业，这次是真的要动了,19,relevant,城建,期待,1,medium,云集路业主在投诉物业，这次是真的要动了,0.97,True,15,4,城建,dianping,https://www.dianping.com/review/84483610,2026-06-13T12:00:00.000000,2026-04-12T03:48:07,111.295242,30.722403,528278.28,3400235.18,111.300924,30.719991,规划范围,
e0244,规划范围,东山公园,磨基山公园环境整治后好多了，但空气有异味还是存在,磨基山公园环境整治后好多了，但空气有异味还是存在,24,relevant,城市,满足,1,low,磨基山公园环境整治后好多了，但空气有异味,0.71,True,23,0,城市,xiaohongshu,https://www.xiaohongshu.com/explore/1a591aeebc56072ef2206590,2026-06-13T12:00:00.000000,2026-03-28T11:24:23,111.278032,30.697028,526636.87,3397417.76,111.283675,30.694582,规划范围,
e0245,规划范围,发展大道,住在胜利四路滨江附近，河水发臭了，快受不了了,住在胜利四路滨江附近，河水发臭了，快受不了了,22,relevant,城市,期待,5,low,住在胜利四路滨江附近，河水发臭了，快受不,0.84,True,40,5,宜昌环境|城市生活|身边事,weibo,https://weibo.com/1481001152/cfc6aa1f,2026-06-13T12:00:00.000000,2026-04-14T15:39:54,111.286008,30.71468,527396.03,3399376.67,111.291668,30.712251,规划范围,
e0246,规划范围,东山公园,运河公园步道最近垃圾清运不及时，居民意见很大,运河公园步道最近垃圾清运不及时，居民意见很大,22,relevant,城市,好奇,1,medium,运河公园步道最近垃圾清运不及时，居民意见,0.71,True,20,5,宜昌|城市,xiaohongshu,https://www.xiaohongshu.com/explore/01546a845ad31ee51c5f8af6,2026-06-13T12:00:00.000000,2026-04-30T11:01:55,111.280288,30.710712,526849.22,3398935.38,111.285936,30.708275,规划范围,
e0247,规划范围,白龙岗小区,港窑路口的路灯如果能增加就好了,港窑路口的路灯如果能增加就好了,15,relevant,城市,失望,1,high,港窑路口的路灯如果能增加就好了,0.87,True,84,3,城市生活,xiaohongshu,https://www.xiaohongshu.com/explore/6ee149168f7cc833a1935bcb,2026-06-13T12:00:00.000000,2026-04-14T02:09:37,111.283509,30.713853,527156.88,3399284.38,111.289164,30.711421,规划范围,
e0248,规划范围,夷陵广场,夷陵广场喷泉消防通道没人管，打12345有用吗,,23,relevant,设施,愤怒,2,medium,夷陵广场喷泉消防通道没人管，打12345,0.83,True,708,13,基础设施,dianping,https://www.dianping.com/review/99971965,2026-06-13T12:00:00.000000,2026-03-27T07:27:52,111.327673,30.727992,531382.73,3400863.43,111.333444,30.72564,规划范围,
e0249,规划范围,东山公园,三峡大学的老建筑翻新后挺有味道，周末带娃去了,三峡大学的老建筑翻新后挺有味道，周末带娃去了,22,relevant,城市,愤怒,4,low,三峡大学的老建筑翻新后挺有味道，周末带娃,0.83,True,6,1,城市记忆|宜昌|打卡,xiaohongshu,https://www.xiaohongshu.com/explore/3ee448ec35759c1380be25e5,2026-06-13T12:00:00.000000,2026-04-29T14:54:51,111.276578,30.715839,526492.43,3399502.9,111.28222,30.7134,规划范围,
e0250,规划范围,猇亭区,运河公园的老建筑翻新后挺有味道值得一逛,运河公园的老建筑翻新后挺有味道值得一逛,19,relevant,城市,失望,5,medium,运河公园的老建筑翻新后挺有味道值得一逛,0.84,True,90,7,打卡|城市记忆,xiaohongshu,https://www.xiaohongshu.com/explore/516ae2ae684456a88a3e60c2,2026-06-13T12:00:00.000000,2026-06-01T13:08:15,111.275848,30.711145,526423.78,3398982.33,111.281488,30.708703,规划范围,
e0251,规划范围,万达广场,分享一下白龙岗小区南门老旧小区加装电梯的最新消息,,24,relevant,城建,中性,5,high,分享一下白龙岗小区南门老旧小区加装电梯的,0.84,True,37,4,规划|城建,dianping,https://www.dianping.com/review/67214561,2026-06-13T12:00:00.000000,2026-06-02T14:24:40,111.287102,30.724077,527498.15,3400418.74,111.292766,30.721654,规划范围,
e0252,规划范围,沿江大道,每天路过三峡大学，无障碍通道被占了太危险了,每天路过三峡大学，无障碍通道被占了太危险了,21,relevant,社区,期待,2,high,每天路过三峡大学，无障碍通道被占了太危险,0.84,True,22773,1626,社区|民生,xiaohongshu,https://www.xiaohongshu.com/explore/ca7275acddcf5541f801c54a,2026-06-13T12:00:00.000000,2026-03-17T06:00:04,111.261315,30.697088,525035.28,3397420.56,111.266931,30.694629,规划范围,
e0253,规划范围,东山公园,水悦城星巴克消防通道设计不合理，打12345有用吗,,25,relevant,设施,中性,1,medium,水悦城星巴克消防通道设计不合理，打123,0.81,True,7,2,基础设施,meituan,https://www.meituan.com/meishi/838291581/,2026-06-13T12:00:00.000000,2026-06-05T09:42:06,111.300771,30.71359,528810.47,3399259.53,111.306467,30.711182,规划范围,
e0254,规划范围,长江,水悦城附近工厂排废气，大家有没有同感,水悦城附近工厂排废气，大家有没有同感,18,relevant,城市,喜爱,3,low,水悦城附近工厂排废气，大家有没有同感,0.83,True,0,4,城市生活|身边事|宜昌环境,weibo,https://weibo.com/4831845850/5099d2bf,2026-06-13T12:00:00.000000,2026-04-22T22:53:45,111.290386,30.711952,527816.17,3399075.31,111.296056,30.709528,规划范围,
e0255,规划范围,珍珠路,滨江公园大门口路边烧烤油烟扰民，大家有没有同感,滨江公园大门口路边烧烤油烟扰民，大家有没有同感,23,relevant,城市,怀念,2,medium,滨江公园大门口路边烧烤油烟扰民，大家有没,0.71,True,102,7,生活|城市|环境,xiaohongshu,https://www.xiaohongshu.com/explore/14af2e54fc124c1590708b6a,2026-06-13T12:00:00.000000,2026-05-05T12:57:19,111.305105,30.731338,529220.27,3401228.29,111.310813,30.728946,规划范围,
e0256,规划范围,城东大道,对比前几年，夷陵区河水发臭了越来越严重了,对比前几年，夷陵区河水发臭了越来越严重了,20,relevant,环境,期待,1,low,对比前几年，夷陵区河水发臭了越来越严重了,0.96,True,9,5,环境污染|河道管理,su12345,https://su12345.yichang.gov.cn/complaint/S2026974724,2026-06-13T12:00:00.000000,2026-05-20T22:22:54,111.282247,30.687394,527043.38,3396350.7,111.287897,30.684948,规划范围,
e0257,规划范围,夷陵区,绿萝路菜市场环境整治后好多了，但晚上光污染严重还是存在,绿萝路菜市场环境整治后好多了，但晚上光污染严重还是存在,27,relevant,环境,喜爱,1,low,绿萝路菜市场环境整治后好多了，但晚上光污,0.91,True,7,3,宜昌环境,weibo,https://weibo.com/4324545518/e690dcc8,2026-06-13T12:00:00.000000,2026-04-17T14:57:02,111.27948,30.703141,526773.91,3398095.82,111.285126,30.700699,规划范围,
e0258,规划范围,港窑路,夷陵广场喷泉附近信报箱没人管，出行很不方便,夷陵广场喷泉附近信报箱没人管，出行很不方便,21,relevant,城市,愤怒,2,low,夷陵广场喷泉附近信报箱没人管，出行很不方,0.83,True,4,0,城市生活,xiaohongshu,https://www.xiaohongshu.com/explore/7a91823a6e6a9b61a9a09a16,2026-06-13T12:00:00.000000,2026-05-26T21:23:11,111.307054,30.736084,529405.48,3401754.97,111.312768,30.733698,规划范围,
e0259,规划范围,珍珠路,早起东山散步，但绿化带被破坏了体验很差,早起东山散步，但绿化带被破坏了体验很差,19,relevant,城市,怀念,1,medium,早起东山散步，但绿化带被破坏了体验很差,0.88,True,7,4,生活|城市|宜昌|环境,xiaohongshu,https://www.xiaohongshu.com/explore/d2988335db59a80b3da2fd16,2026-06-13T12:00:00.000000,2026-05-18T00:00:41,111.30672,30.752378,529368.55,3403561.33,111.312435,30.75,规划范围,
e0260,规划范围,夷陵广场,西陵一路天桥的路边烧烤油烟扰民影响了周边居民生活,西陵一路天桥的路边烧烤油烟扰民影响了周边居民生活,24,relevant,环境,期待,3,medium,西陵一路天桥的路边烧烤油烟扰民影响了周边,0.83,True,7,0,环境,dianping,https://www.dianping.com/review/78861420,2026-06-13T12:00:00.000000,2026-04-22T12:45:04,111.27261,30.692954,526118.51,3396964.82,111.278243,30.690501,规划范围,
e0261,规划范围,发展大道,吐槽万达广场的绿化，没人管,吐槽万达广场的绿化，没人管,13,relevant,城市,期待,4,low,吐槽万达广场的绿化，没人管,0.71,True,2,3,城市生活,xiaohongshu,https://www.xiaohongshu.com/explore/9fee5703f98ec64b1c6c604e,2026-06-13T12:00:00.000000,2026-05-16T16:55:27,111.296835,30.721193,528431.21,3400101.43,111.302521,30.718783,规划范围,
e0262,规划范围,发展大道,夷陵大道环境整治后好多了，但渣土车半夜经过噪音大还是存在,夷陵大道环境整治后好多了，但渣土车半夜经过噪音大还是存在,28,relevant,环境,怀念,1,low,夷陵大道环境整治后好多了，但渣土车半夜经,0.77,True,66,6,宜昌|环境|生活,xiaohongshu,https://www.xiaohongshu.com/explore/2b0b7bbdd677fe8996ec8887,2026-06-13T12:00:00.000000,2026-05-31T16:36:03,111.315887,30.732166,530252.62,3401322.94,111.321625,30.729794,规划范围,
e0263,规划范围,夷陵区,每次路过葛洲坝公园都闻到灰尘特别大，窗户都不敢开,,24,relevant,环境,愤怒,4,low,每次路过葛洲坝公园都闻到灰尘特别大，窗户,0.85,True,45,4,周边环境,meituan,https://www.meituan.com/meishi/568540153/,2026-06-13T12:00:00.000000,2026-05-20T04:53:02,111.294861,30.70831,528245.89,3398672.66,111.300541,30.705891,规划范围,
e0264,规划范围,西陵区,东辰壹号的充电桩不够用，物业一直不解决,,19,relevant,设施,中性,5,low,东辰壹号的充电桩不够用，物业一直不解决,0.82,True,21,1,基础设施,dianping,https://www.dianping.com/review/46793085,2026-06-13T12:00:00.000000,2026-05-20T05:32:27,111.325775,30.72541,531201.78,3400576.65,111.331541,30.723053,规划范围,
e0265,规划范围,锦绣社区,东辰壹号的燃气投诉了好几次没用，大家有没有同感,东辰壹号的燃气投诉了好几次没用，大家有没有同感,23,relevant,社区,中性,4,low,东辰壹号的燃气投诉了好几次没用，大家有没,0.83,True,2,3,社区|生活服务|宜昌,xiaohongshu,https://www.xiaohongshu.com/explore/9199d67004eae48f81ca3908,2026-06-13T12:00:00.000000,2026-04-24T22:25:04,111.276797,30.700082,526517.72,3397756.05,111.282438,30.697636,规划范围,
e0266,规划范围,发展大道,夷陵广场电梯没人管，反映了好几次了,,17,relevant,设施,愤怒,3,medium,夷陵广场电梯没人管，反映了好几次了,0.7,True,7,2,基础设施|公共设施,dianping,https://www.dianping.com/review/20199688,2026-06-13T12:00:00.000000,2026-05-21T23:51:23,111.287973,30.719223,527582.96,3399880.81,111.293638,30.716799,规划范围,
e0267,规划范围,锦绣社区,住在CBD中央大街附近，水质越来越差了，快受不了了,住在CBD中央大街附近，水质越来越差了，快受不了了,25,relevant,城市,好奇,4,medium,住在CBD中央大街附近，水质越来越差了，,0.73,True,6,2,环境|宜昌|城市,xiaohongshu,https://www.xiaohongshu.com/explore/eaa684a93aaea01a569e74c2,2026-06-13T12:00:00.000000,2026-04-24T09:49:47,111.288657,30.712557,527650.37,3399141.95,111.294323,30.710131,规划范围,
e0268,规划范围,西陵区,西陵区的老建筑翻新后挺有味道值得一逛,西陵区的老建筑翻新后挺有味道值得一逛,18,relevant,城市,好奇,1,medium,西陵区的老建筑翻新后挺有味道值得一逛,0.8,True,20,4,城市记忆|宜昌文化,weibo,https://weibo.com/4625491059/45356343,2026-06-13T12:00:00.000000,2026-05-22T15:24:44,111.28338,30.692603,527150.48,3396928.46,111.289033,30.69016,规划范围,
e0269,规划范围,猇亭区,水悦城的供水配套设施跟不上,水悦城的供水配套设施跟不上,13,relevant,社区,中性,1,medium,水悦城的供水配套设施跟不上,0.85,True,169,12,宜昌|便民|生活服务|社区,xiaohongshu,https://www.xiaohongshu.com/explore/055192c19839230a9be5097a,2026-06-13T12:00:00.000000,2026-04-06T16:40:41,111.310162,30.729766,529705.07,3401055.34,111.315884,30.727382,规划范围,
e0270,规划范围,东山公园,西陵区非遗活动很有意思，很有特色,西陵区非遗活动很有意思，很有特色,16,relevant,城市,喜爱,1,medium,西陵区非遗活动很有意思，很有特色,0.79,True,6428,475,宜昌|打卡|城市记忆|文化,xiaohongshu,https://www.xiaohongshu.com/explore/f1bbb171f0a9612727d7cf25,2026-06-13T12:00:00.000000,2026-05-09T05:18:31,111.294341,30.733571,528188.73,3401473.09,111.300022,30.731163,规划范围,
e0271,规划范围,夷陵大道,住在西陵一路天桥附近，小区门口乱倒建筑垃圾，快受不了了,住在西陵一路天桥附近，小区门口乱倒建筑垃圾，快受不了了,27,relevant,城市,中性,4,low,住在西陵一路天桥附近，小区门口乱倒建筑垃,0.82,True,5,3,宜昌环境|城市生活|身边事,weibo,https://weibo.com/2886701340/70fb34ca,2026-06-13T12:00:00.000000,2026-05-30T15:53:11,111.302948,30.722239,529016.41,3400218.96,111.30865,30.719839,规划范围,
e0272,规划范围,伍家岗区,夷陵广场喷泉的空气有异味影响了周边居民生活,夷陵广场喷泉的空气有异味影响了周边居民生活,21,relevant,城市,期待,4,high,夷陵广场喷泉的空气有异味影响了周边居民生,0.96,True,9,1,身边事|城市生活|宜昌环境,weibo,https://weibo.com/4699663321/115ef2e9,2026-06-13T12:00:00.000000,2026-03-15T22:46:40,111.291711,30.750386,527932.01,3403336.64,111.297387,30.747983,规划范围,
e0273,规划范围,西陵一路,猇亭区防盗门终于要更新了，期待,,15,relevant,设施,喜爱,2,medium,猇亭区防盗门终于要更新了，期待,0.8,True,38,5,基础设施|公共设施,dianping,https://www.dianping.com/review/41624581,2026-06-13T12:00:00.000000,2026-06-01T16:40:59,111.336469,30.716974,532228.83,3399644.41,111.342265,30.714634,规划范围,
e0274,规划范围,运河公园,CBD银行终于加强了，等了很久,CBD银行终于加强了，等了很久,15,relevant,社区,中性,2,low,CBD银行终于加强了，等了很久,0.74,True,33,2,便民|生活服务|社区,xiaohongshu,https://www.xiaohongshu.com/explore/1be5bd20ee2e196455534719,2026-06-13T12:00:00.000000,2026-04-08T01:46:40,111.301473,30.702733,528880.95,3398056.04,111.307169,30.700321,规划范围,
e0275,规划范围,东山公园,国贸大厦的滨江的文化墙更新了值得一逛,国贸大厦的滨江的文化墙更新了值得一逛,18,relevant,城市,愤怒,2,high,国贸大厦的滨江的文化墙更新了值得一逛,0.77,True,22,1,文化|城市记忆,xiaohongshu,https://www.xiaohongshu.com/explore/0b2468ca85d9708579a864bd,2026-06-13T12:00:00.000000,2026-04-23T00:01:49,111.277913,30.708507,526622.32,3398690.35,111.283556,30.706066,规划范围,
e0276,规划范围,万达广场,吐槽均瑶广场门口的无障碍通道，太旧了,吐槽均瑶广场门口的无障碍通道，太旧了,18,relevant,城市,失望,3,medium,吐槽均瑶广场门口的无障碍通道，太旧了,0.9,True,88,5,宜昌|社区|城市生活,xiaohongshu,https://www.xiaohongshu.com/explore/1e487b6aaee24c14eacb4f54,2026-06-13T12:00:00.000000,2026-03-27T03:12:33,111.281704,30.712034,526984.49,3399082.28,111.287355,30.709599,规划范围,
e0277,规划范围,珍珠路,对比隔壁体育场路，我们国贸负一楼的护栏存在安全隐患,对比隔壁体育场路，我们国贸负一楼的护栏存在安全隐患,25,relevant,城市,愤怒,3,low,对比隔壁体育场路，我们国贸负一楼的护栏存,0.8,True,27,5,社区|宜昌|民生|城市生活,xiaohongshu,https://www.xiaohongshu.com/explore/2434ea9a25daa628b448cc82,2026-06-13T12:00:00.000000,2026-03-26T19:27:42,111.310114,30.737913,529697.97,3401958.55,111.315837,30.735533,规划范围,
e0278,规划范围,体育场路,点军区新开了物业费，方便多了,点军区新开了物业费，方便多了,14,relevant,社区,期待,3,low,点军区新开了物业费，方便多了,0.92,True,24,1,宜昌|社区,xiaohongshu,https://www.xiaohongshu.com/explore/0dc83629cb58aabe748fbf92,2026-06-13T12:00:00.000000,2026-04-24T03:55:25,111.289126,30.731339,527689.93,3401224.34,111.294795,30.728923,规划范围,
e0279,规划范围,点军区,原来胜利四路文化节办得有声有色，今天才发现,原来胜利四路文化节办得有声有色，今天才发现,21,relevant,城市,失望,1,medium,原来胜利四路文化节办得有声有色，今天才发,0.83,True,0,4,宜昌文化|城市记忆,weibo,https://weibo.com/7743240119/5802af11,2026-06-13T12:00:00.000000,2026-04-11T13:35:31,111.297548,30.721902,528499.3,3400180.22,111.303236,30.719493,规划范围,
e0280,规划范围,水悦城,夷陵区图书馆环境很好，很有特色,夷陵区图书馆环境很好，很有特色,15,relevant,城市,喜爱,2,low,夷陵区图书馆环境很好，很有特色,0.78,True,5,0,城市记忆,weibo,https://weibo.com/1389151133/80755ad9,2026-06-13T12:00:00.000000,2026-04-12T14:37:55,111.28791,30.705342,527580.87,3398341.88,111.293574,30.702911,规划范围,
e0281,规划范围,珍珠路,港窑路的河道漂浮垃圾影响了周边居民生活,港窑路的河道漂浮垃圾影响了周边居民生活,19,relevant,城市,怀念,4,low,港窑路的河道漂浮垃圾影响了周边居民生活,0.95,True,1087,23,城市|宜昌,xiaohongshu,https://www.xiaohongshu.com/explore/c36209fb913a642a49c2a2cb,2026-06-13T12:00:00.000000,2026-05-07T20:35:50,111.295779,30.71543,528331.75,3399462.25,111.301462,30.713015,规划范围,
e0282,规划范围,云集路,今天看到港窑路口要通天然气了的通告,,17,relevant,规划,失望,2,high,今天看到港窑路口要通天然气了的通告,0.93,True,10,1,规划,dianping,https://www.dianping.com/review/96309191,2026-06-13T12:00:00.000000,2026-03-21T19:16:04,111.306781,30.728851,529381.53,3400953.0,111.312494,30.726461,规划范围,
e0283,规划范围,体育场路,对比隔壁CBD，我们东山大道的消防设施不够用,,22,relevant,设施,中性,1,medium,对比隔壁CBD，我们东山大道的消防设施不,0.76,True,119,9,公共设施,dianping,https://www.dianping.com/review/21985134,2026-06-13T12:00:00.000000,2026-05-07T16:32:02,111.278029,30.691523,526638.1,3396807.45,111.283671,30.689074,规划范围,
e0284,规划范围,白龙岗小区,关于夷陵广场老旧小区加装电梯，有知情人士吗,关于夷陵广场老旧小区加装电梯，有知情人士吗,21,relevant,城建,中性,2,high,关于夷陵广场老旧小区加装电梯，有知情人士,0.74,True,16,0,城建,xiaohongshu,https://www.xiaohongshu.com/explore/135cde8ea0f02264d46ca289,2026-06-13T12:00:00.000000,2026-04-30T06:42:49,111.286281,30.71655,527421.65,3399584.06,111.291942,30.714123,规划范围,
e0285,规划范围,运河公园,东山公园那边工地天天施工，噪音太大了,,18,relevant,环境,期待,1,medium,东山公园那边工地天天施工，噪音太大了,0.94,True,16,0,环境,dianping,https://www.dianping.com/review/24745281,2026-06-13T12:00:00.000000,2026-05-30T03:12:38,111.297839,30.70873,528531.05,3398719.97,111.303527,30.706315,规划范围,
e0286,规划范围,国贸大厦,在云集路商场幼儿园人手不够，效率真的低,在云集路商场幼儿园人手不够，效率真的低,19,relevant,民生,愤怒,2,medium,在云集路商场幼儿园人手不够，效率真的低,0.72,True,28,1,生活便利|宜昌服务|民生,weibo,https://weibo.com/7206158820/749321c8,2026-06-13T12:00:00.000000,2026-05-17T06:38:42,111.278739,30.709035,526701.3,3398749.08,111.284384,30.706595,规划范围,
e0287,规划范围,长江,早起珍珠路散步，但空气有异味体验很差,,18,relevant,环境,失望,2,low,早起珍珠路散步，但空气有异味体验很差,0.78,True,6,1,环境|周边,dianping,https://www.dianping.com/review/21571473,2026-06-13T12:00:00.000000,2026-06-04T07:18:36,111.294372,30.715322,528197.01,3399449.92,111.300052,30.712905,规划范围,
e0288,规划范围,发展大道,对比前几年，滨江公园大门口小区门口乱倒建筑垃圾越来越严重了,对比前几年，滨江公园大门口小区门口乱倒建筑垃圾越来越严重了,29,relevant,城市,中性,2,low,对比前几年，滨江公园大门口小区门口乱倒建,0.71,True,11,5,宜昌环境|城市生活|身边事,weibo,https://weibo.com/5805754132/53554d0f,2026-06-13T12:00:00.000000,2026-05-10T05:55:21,111.288374,30.721207,527620.8,3400100.87,111.29404,30.718785,规划范围,
e0289,规划范围,均瑶广场,今天看到国贸负一楼小区要改造了的通告,今天看到国贸负一楼小区要改造了的通告,18,relevant,城建,喜爱,3,low,今天看到国贸负一楼小区要改造了的通告,0.89,True,39,4,新鲜事|规划|城建,xiaohongshu,https://www.xiaohongshu.com/explore/3b935b3fc2ef2442e704ebfc,2026-06-13T12:00:00.000000,2026-06-12T15:16:24,111.313556,30.726373,530031.17,3400680.07,111.319287,30.723994,规划范围,
e0290,规划范围,港窑路,城东大道BRT站公交车管理混乱，体验很不好,城东大道BRT站公交车管理混乱，体验很不好,21,relevant,社区,喜爱,4,medium,城东大道BRT站公交车管理混乱，体验很不,0.82,True,2,0,生活服务|宜昌|社区,xiaohongshu,https://www.xiaohongshu.com/explore/60f4306f58823f24b2d7ca56,2026-06-13T12:00:00.000000,2026-05-04T13:58:22,111.273619,30.699638,526213.38,3397706.08,111.279254,30.697189,规划范围,
e0291,规划范围,万达广场,葛洲坝的工业遗址改造得很成功值得一逛,葛洲坝的工业遗址改造得很成功值得一逛,18,relevant,城市,满足,1,high,葛洲坝的工业遗址改造得很成功值得一逛,0.77,True,61,2,城市记忆|文化|宜昌|打卡,xiaohongshu,https://www.xiaohongshu.com/explore/969c926aacd593cba24aa44f,2026-06-13T12:00:00.000000,2026-03-31T06:27:46,111.29776,30.706995,528523.99,3398527.6,111.303447,30.704579,规划范围,
e0292,规划范围,猇亭区,西陵区快递的比以前差远了问题，已经反映多次,西陵区快递的比以前差远了问题，已经反映多次,21,relevant,民生,喜爱,5,low,西陵区快递的比以前差远了问题，已经反映多,0.96,True,39,3,生活便利|宜昌服务|民生,weibo,https://weibo.com/7897714205/90770502,2026-06-13T12:00:00.000000,2026-06-12T02:46:39,111.293334,30.723055,528095.34,3400306.98,111.299012,30.72064,规划范围,
e0293,规划范围,白龙岗小区,夷陵区的社区文化中心活动丰富，老宜昌人的记忆,夷陵区的社区文化中心活动丰富，老宜昌人的记忆,22,relevant,城市,愤怒,4,high,夷陵区的社区文化中心活动丰富，老宜昌人的,0.71,True,659,39,文化|打卡|宜昌|城市记忆,xiaohongshu,https://www.xiaohongshu.com/explore/393cf458f6b9c3a55ca48ace,2026-06-13T12:00:00.000000,2026-04-16T21:36:45,111.30763,30.723303,529464.53,3400338.14,111.313345,30.720912,规划范围,
e0294,规划范围,伍家岗区,白龙岗小区的老建筑翻新后挺有味道，周末带娃去了,白龙岗小区的老建筑翻新后挺有味道，周末带娃去了,23,relevant,城市,满足,3,low,白龙岗小区的老建筑翻新后挺有味道，周末带,0.94,True,23,2,城市记忆,weibo,https://weibo.com/6049266865/36976dc3,2026-06-13T12:00:00.000000,2026-04-08T08:44:42,111.293189,30.713916,528084.1,3399293.75,111.298866,30.711497,规划范围,
e0295,规划范围,港窑路,伍家岗区的社区文化中心活动丰富值得一逛,伍家岗区的社区文化中心活动丰富值得一逛,19,relevant,城市,好奇,1,medium,伍家岗区的社区文化中心活动丰富值得一逛,0.93,True,8,4,宜昌|文化|城市记忆,xiaohongshu,https://www.xiaohongshu.com/explore/aa08f388d43e31f3ca4980f1,2026-06-13T12:00:00.000000,2026-06-04T20:26:09,111.292427,30.715236,528010.73,3399439.9,111.298102,30.712816,规划范围,
e0296,规划范围,CBD,儿童公园红绿灯终于要更新了，期待,儿童公园红绿灯终于要更新了，期待,16,relevant,城市,喜爱,4,low,儿童公园红绿灯终于要更新了，期待,0.87,True,2,4,宜昌身边事|民生关注|城市设施,weibo,https://weibo.com/2306542074/a365caad,2026-06-13T12:00:00.000000,2026-04-16T03:34:49,111.277683,30.714381,526598.67,3399341.52,111.283326,30.711943,规划范围,
e0297,规划范围,港窑路,珍珠路小学公交站台终于要升级了，期待,珍珠路小学公交站台终于要升级了，期待,18,relevant,民生,失望,3,medium,珍珠路小学公交站台终于要升级了，期待,0.85,True,46,3,民生,xiaohongshu,https://www.xiaohongshu.com/explore/365601da807a335f370d32b7,2026-06-13T12:00:00.000000,2026-03-20T16:50:58,111.311849,30.719721,529869.73,3399942.14,111.317575,30.717335,规划范围,
e0298,规划范围,运河公园,夷陵大道附近信报箱需要增加，出行很不方便,,20,relevant,设施,失望,1,high,夷陵大道附近信报箱需要增加，出行很不方便,0.75,True,11,5,基础设施,dianping,https://www.dianping.com/review/71661470,2026-06-13T12:00:00.000000,2026-04-22T12:35:54,111.272583,30.700909,526113.78,3397846.75,111.278216,30.698459,规划范围,
e0299,规划范围,西陵一路,均瑶广场的减速带终于好几天没人修了,均瑶广场的减速带终于好几天没人修了,17,relevant,设施,喜爱,4,medium,均瑶广场的减速带终于好几天没人修了,0.97,True,6,5,基础设施,meituan,https://www.meituan.com/meishi/247286460/,2026-06-13T12:00:00.000000,2026-04-14T06:15:37,111.30096,30.727048,528824.57,3400751.6,111.306657,30.724647,规划范围,
e0300,规划范围,锦绣社区,住在磨基山公园附近，河水发臭了，快受不了了,住在磨基山公园附近，河水发臭了，快受不了了,21,relevant,城市,愤怒,5,high,住在磨基山公园附近，河水发臭了，快受不了,0.94,True,10,2,环境|生活|宜昌|城市,xiaohongshu,https://www.xiaohongshu.com/explore/bd725dcf5b419769779337b5,2026-06-13T12:00:00.000000,2026-05-21T15:53:35,111.273955,30.696387,526246.45,3397345.74,111.27959,30.693936,规划范围,
e0301,规划范围,珍珠路,住在云集路商场附近，下水道反味，快受不了了,住在云集路商场附近，下水道反味，快受不了了,21,relevant,环境,期待,4,high,住在云集路商场附近，下水道反味，快受不了,0.9,True,5,2,宜昌|环境|生活,xiaohongshu,https://www.xiaohongshu.com/explore/f1847a25b2c8aedf4eff484f,2026-06-13T12:00:00.000000,2026-05-08T22:43:17,111.279537,30.713764,526776.44,3399273.56,111.285184,30.711327,规划范围,
e0302,规划范围,伍家岗区,国贸负一楼那边工地天天施工，噪音太大了,国贸负一楼那边工地天天施工，噪音太大了,19,relevant,环境,喜爱,2,medium,国贸负一楼那边工地天天施工，噪音太大了,0.98,True,5,3,环境,xiaohongshu,https://www.xiaohongshu.com/explore/cc8edbb50cade17e54282221,2026-06-13T12:00:00.000000,2026-04-17T13:45:30,111.302974,30.725739,529017.85,3400607.0,111.308676,30.723341,规划范围,
e0303,规划范围,东山,绿萝路河道漂浮垃圾，大家有没有同感,绿萝路河道漂浮垃圾，大家有没有同感,17,relevant,城市,愤怒,5,medium,绿萝路河道漂浮垃圾，大家有没有同感,0.73,True,3,3,身边事|城市生活,weibo,https://weibo.com/5011923885/370c6318,2026-06-13T12:00:00.000000,2026-06-11T18:24:11,111.294267,30.723817,528184.48,3400391.69,111.299947,30.721404,规划范围,
e0304,规划范围,CBD,长江环境整治后好多了，但灰尘特别大，窗户都不敢开还是存在,长江环境整治后好多了，但灰尘特别大，窗户都不敢开还是存在,28,relevant,城市,愤怒,2,high,长江环境整治后好多了，但灰尘特别大，窗户,0.72,True,20,2,身边事|宜昌环境|城市生活,weibo,https://weibo.com/6575403188/c33f87b7,2026-06-13T12:00:00.000000,2026-04-09T14:08:44,111.307967,30.73681,529492.7,3401835.69,111.313684,30.734426,规划范围,
e0305,规划范围,胜利四路,珍珠路新装的红绿灯挺好的，给社区点赞,,18,relevant,设施,怀念,5,medium,珍珠路新装的红绿灯挺好的，给社区点赞,0.86,True,7,2,公共设施,dianping,https://www.dianping.com/review/20758862,2026-06-13T12:00:00.000000,2026-04-14T11:41:05,111.274295,30.699281,526278.24,3397666.66,111.279931,30.696832,规划范围,
e0306,规划范围,猇亭区,江山多娇的理发店投诉了好几次没用，大家有没有同感,江山多娇的理发店投诉了好几次没用，大家有没有同感,24,relevant,社区,期待,3,high,江山多娇的理发店投诉了好几次没用，大家有,0.82,True,16,3,社区服务,su12345,https://su12345.yichang.gov.cn/complaint/S2026368016,2026-06-13T12:00:00.000000,2026-04-05T23:57:52,111.300714,30.709332,528806.27,3398787.45,111.306409,30.706922,规划范围,
e0307,规划范围,运河公园,每次路过葛洲坝公园都闻到晚上光污染严重,每次路过葛洲坝公园都闻到晚上光污染严重,19,relevant,城市,愤怒,4,low,每次路过葛洲坝公园都闻到晚上光污染严重,0.91,True,11,1,宜昌环境|城市生活,weibo,https://weibo.com/8650597264/47b12eea,2026-06-13T12:00:00.000000,2026-03-19T22:46:45,111.323044,30.729806,530938.8,3401063.25,111.328802,30.727446,规划范围,
e0308,规划范围,夷陵广场,东山大道长途站在修路，有业主群吗求拉,东山大道长途站在修路，有业主群吗求拉,18,relevant,规划,期待,2,low,东山大道长途站在修路，有业主群吗求拉,0.83,True,200,4,规划公示|拆迁安置,su12345,https://su12345.yichang.gov.cn/complaint/S2026353944,2026-06-13T12:00:00.000000,2026-05-26T16:24:52,111.274401,30.693656,526289.92,3397043.07,111.280037,30.691205,规划范围,
e0309,规划范围,运河公园,东山公园的非遗活动很有意思，拍照超出片,东山公园的非遗活动很有意思，拍照超出片,19,relevant,城市,喜爱,2,low,东山公园的非遗活动很有意思，拍照超出片,0.95,True,177,14,文化|宜昌|打卡|城市记忆,xiaohongshu,https://www.xiaohongshu.com/explore/b1d76cb3813d3f8e3d88d293,2026-06-13T12:00:00.000000,2026-05-24T06:26:27,111.288631,30.722372,527645.08,3400230.09,111.294298,30.719951,规划范围,
e0310,规划范围,运河公园,夷陵大道附近建了新的医院，大家支持,夷陵大道附近建了新的医院，大家支持,17,relevant,城建,怀念,5,high,夷陵大道附近建了新的医院，大家支持,0.93,True,7,2,民生实事|宜昌新闻|城建动态,weibo,https://weibo.com/8089314542/788e3fe4,2026-06-13T12:00:00.000000,2026-03-13T00:29:40,111.285038,30.709309,527304.63,3398780.98,111.290696,30.706876,规划范围,
e0311,规划范围,点军区,磨基山公园的斑马线如果能更新就好了,磨基山公园的斑马线如果能更新就好了,17,relevant,城市,中性,4,medium,磨基山公园的斑马线如果能更新就好了,0.76,True,300,23,社区|城市生活|宜昌|民生,xiaohongshu,https://www.xiaohongshu.com/explore/81a83b7baea475083fbe1cf9,2026-06-13T12:00:00.000000,2026-06-08T00:22:34,111.286492,30.719944,527440.9,3399960.38,111.292154,30.717519,规划范围,
e0312,规划范围,儿童公园,原来儿童公园城市书房24小时开放，今天才发现,原来儿童公园城市书房24小时开放，今天才发现,22,relevant,城市,喜爱,2,medium,原来儿童公园城市书房24小时开放，今天才,0.81,True,15,5,宜昌文化|城市记忆|打卡宜昌,weibo,https://weibo.com/8409090295/12a9cb2a,2026-06-13T12:00:00.000000,2026-04-26T13:34:59,111.291908,30.722441,527958.94,3400238.55,111.297582,30.720024,规划范围,
e0313,规划范围,黄柏河,水悦城音乐节今年在运河公园办得不错,水悦城音乐节今年在运河公园办得不错,17,relevant,城市,喜爱,2,high,水悦城音乐节今年在运河公园办得不错,0.74,True,16,5,打卡宜昌|宜昌文化|城市记忆,weibo,https://weibo.com/6961512221/a13c290f,2026-06-13T12:00:00.000000,2026-05-28T00:52:12,111.274461,30.715396,526289.77,3399453.29,111.280099,30.712955,规划范围,
e0314,规划范围,万达广场,滨江公园最近要建新的学校，邻居们都在讨论,滨江公园最近要建新的学校，邻居们都在讨论,20,relevant,城建,期待,1,low,滨江公园最近要建新的学校，邻居们都在讨论,0.89,True,11,0,城建|宜昌|规划,xiaohongshu,https://www.xiaohongshu.com/explore/b5ee1fa063739b964a4e15f0,2026-06-13T12:00:00.000000,2026-05-15T11:16:40,111.301145,30.717887,528845.02,3399736.01,111.306842,30.715482,规划范围,
e0315,规划范围,西陵一路,葛洲坝公园的绿化带被破坏了问题，已经持续大半年了,葛洲坝公园的绿化带被破坏了问题，已经持续大半年了,24,relevant,环境,怀念,2,medium,葛洲坝公园的绿化带被破坏了问题，已经持续,0.95,True,10,3,环境|宜昌,xiaohongshu,https://www.xiaohongshu.com/explore/9ee3ce1bff912d7430798d74,2026-06-13T12:00:00.000000,2026-05-14T06:06:01,111.302261,30.73827,528945.82,3401996.07,111.307963,30.735877,规划范围,
e0316,规划范围,伍家岗区,黄柏河下水道坏了，打12345有用吗,黄柏河下水道坏了，打12345有用吗,18,relevant,城市,好奇,1,high,黄柏河下水道坏了，打12345有用吗,0.74,True,314,17,宜昌身边事|城市设施|民生关注,weibo,https://weibo.com/7056093665/4043f53a,2026-06-13T12:00:00.000000,2026-06-11T23:19:54,111.27628,30.704109,526467.09,3398202.38,111.28192,30.701664,规划范围,
e0317,规划范围,白龙岗小区,吐槽港窑路口的监控，不够用,吐槽港窑路口的监控，不够用,13,relevant,城市,好奇,5,high,吐槽港窑路口的监控，不够用,0.95,True,9,3,城市设施,weibo,https://weibo.com/7657049924/03d388cc,2026-06-13T12:00:00.000000,2026-04-07T11:17:58,111.283727,30.71595,527177.18,3399516.92,111.289383,30.713519,规划范围,
e0318,规划范围,儿童公园,东辰壹号要建新的地铁站，不知道什么时候动工,东辰壹号要建新的地铁站，不知道什么时候动工,21,relevant,城建,失望,4,low,东辰壹号要建新的地铁站，不知道什么时候动,0.71,True,17,4,城建,dianping,https://www.dianping.com/review/35275058,2026-06-13T12:00:00.000000,2026-05-25T21:09:23,111.307901,30.748672,529482.77,3403150.77,111.313618,30.746294,规划范围,
e0319,规划范围,万达广场,今天看到体育场路公交线路要调整的通告,今天看到体育场路公交线路要调整的通告,18,relevant,规划,中性,1,low,今天看到体育场路公交线路要调整的通告,0.71,True,6,3,宜昌|规划|新鲜事,xiaohongshu,https://www.xiaohongshu.com/explore/29dad9cc3c8d4e483a42c2bb,2026-06-13T12:00:00.000000,2026-05-08T08:55:02,111.300687,30.716539,528801.55,3399586.45,111.306383,30.714133,规划范围,
e0320,规划范围,锦绣社区,周末去发展大道逛了逛，传统手艺人在做展示,周末去发展大道逛了逛，传统手艺人在做展示,20,relevant,城市,期待,1,high,周末去发展大道逛了逛，传统手艺人在做展示,0.99,True,67,5,文化|打卡|城市记忆|宜昌,xiaohongshu,https://www.xiaohongshu.com/explore/2cff7f91d81fb484dab48a18,2026-06-13T12:00:00.000000,2026-03-22T20:30:37,111.244398,30.705976,523412.39,3398402.28,111.25,30.70352,规划范围,
e0321,规划范围,均瑶广场,港窑路口新开了社区医院，方便多了,港窑路口新开了社区医院，方便多了,16,relevant,社区,失望,2,medium,港窑路口新开了社区医院，方便多了,0.96,True,514,33,社区服务,su12345,https://su12345.yichang.gov.cn/complaint/S2026605452,2026-06-13T12:00:00.000000,2026-03-18T20:59:09,111.280206,30.690288,526847.02,3396671.05,111.285852,30.687841,规划范围,
e0322,规划范围,均瑶广场,夷陵区滨江的文化墙更新了，很有特色,夷陵区滨江的文化墙更新了，很有特色,17,relevant,城市,怀念,3,low,夷陵区滨江的文化墙更新了，很有特色,0.77,True,8689,147,城市记忆|宜昌,xiaohongshu,https://www.xiaohongshu.com/explore/4bbe8e819c1d22964aa8e0e3,2026-06-13T12:00:00.000000,2026-04-10T06:28:01,111.308777,30.73499,529570.82,3401634.13,111.314496,30.732607,规划范围,
e0323,规划范围,夷陵大道,住在猇亭区，公共厕所存在安全隐患真是受够了,住在猇亭区，公共厕所存在安全隐患真是受够了,21,relevant,城市,失望,1,medium,住在猇亭区，公共厕所存在安全隐患真是受够,0.76,True,6,4,城市生活|民生|宜昌|社区,xiaohongshu,https://www.xiaohongshu.com/explore/4acfbb8f2d623efa669f688f,2026-06-13T12:00:00.000000,2026-05-04T08:06:01,111.305939,30.709787,529306.66,3398839.24,111.311648,30.707386,规划范围,
e0324,规划范围,锦绣社区,点军区的快递办事效率太低,点军区的快递办事效率太低,12,relevant,社区,满足,3,high,点军区的快递办事效率太低,0.86,True,84,8,生活服务|社区,xiaohongshu,https://www.xiaohongshu.com/explore/ea042f1a33355aaadeb53542,2026-06-13T12:00:00.000000,2026-06-11T03:21:53,111.273458,30.702288,526197.24,3397999.83,111.279093,30.69984,规划范围,
e0325,规划范围,东山大道,夷陵区传统手艺人在做展示，很有特色,夷陵区传统手艺人在做展示，很有特色,17,relevant,城市,喜爱,3,high,夷陵区传统手艺人在做展示，很有特色,0.88,True,15,4,城市记忆|文化,xiaohongshu,https://www.xiaohongshu.com/explore/4246aeed368498cee33cbfbb,2026-06-13T12:00:00.000000,2026-06-05T06:51:07,111.264977,30.700207,525385.3,3397767.17,111.270598,30.697752,规划范围,
e0326,规划范围,儿童公园,对比前几年，猇亭区垃圾清运不及时越来越严重了,对比前几年，猇亭区垃圾清运不及时越来越严重了,22,relevant,环境,失望,4,medium,对比前几年，猇亭区垃圾清运不及时越来越严,0.8,True,24,4,环境|生活,xiaohongshu,https://www.xiaohongshu.com/explore/a991c1eeb745d9cfff089f99,2026-06-13T12:00:00.000000,2026-04-12T22:35:43,111.27832,30.699321,526663.83,3397672.04,111.283963,30.696876,规划范围,
e0327,规划范围,沿江大道,住在西陵区附近，附近工厂排废气，快受不了了,住在西陵区附近，附近工厂排废气，快受不了了,21,relevant,城市,好奇,4,medium,住在西陵区附近，附近工厂排废气，快受不了,0.96,True,22619,775,宜昌|城市|生活,xiaohongshu,https://www.xiaohongshu.com/explore/8ce0fa870a26a1efcdad07d5,2026-06-13T12:00:00.000000,2026-05-01T13:50:44,111.271536,30.695106,526015.03,3397203.15,111.277167,30.692653,规划范围,
e0328,规划范围,东山,吐槽运河公园的消防设施，太旧了,吐槽运河公园的消防设施，太旧了,15,relevant,社区,怀念,3,low,吐槽运河公园的消防设施，太旧了,0.81,True,9349,138,社区,xiaohongshu,https://www.xiaohongshu.com/explore/26c21bd5ef40f780cb9d5988,2026-06-13T12:00:00.000000,2026-05-30T20:11:45,111.295136,30.701704,528274.16,3397940.35,111.300816,30.699282,规划范围,
e0329,规划范围,伍家岗区,长江的传统手艺人在做展示，周末带娃去了,长江的传统手艺人在做展示，周末带娃去了,19,relevant,城市,期待,4,low,长江的传统手艺人在做展示，周末带娃去了,0.91,True,7,1,城市记忆|宜昌文化,weibo,https://weibo.com/4318658302/3048be1d,2026-06-13T12:00:00.000000,2026-05-08T09:49:00,111.261817,30.682465,525087.15,3395799.5,111.267433,30.68,规划范围,
e0330,规划范围,东山,儿童公园北门那边晚上光污染严重,儿童公园北门那边晚上光污染严重,15,relevant,环境,期待,5,high,儿童公园北门那边晚上光污染严重,0.79,True,11,3,环境,dianping,https://www.dianping.com/review/93199364,2026-06-13T12:00:00.000000,2026-06-10T09:46:07,111.246589,30.691287,523625.86,3396774.25,111.252191,30.688823,规划范围,
e0331,规划范围,水悦城,关注葛洲坝公园准备建垃圾中转站的最新进展,关注葛洲坝公园准备建垃圾中转站的最新进展,20,relevant,城建,好奇,5,high,关注葛洲坝公园准备建垃圾中转站的最新进展,0.72,True,15,3,城建|宜昌|规划|新鲜事,xiaohongshu,https://www.xiaohongshu.com/explore/d5005b7a516c493fb8bb1aff,2026-06-13T12:00:00.000000,2026-06-04T22:43:41,111.273939,30.706548,526242.16,3398472.23,111.279575,30.704102,规划范围,
e0332,规划范围,发展大道,体育场路新装的停车位挺好的，给社区点赞,体育场路新装的停车位挺好的，给社区点赞,19,relevant,民生,失望,3,medium,体育场路新装的停车位挺好的，给社区点赞,0.82,True,4,2,宜昌身边事|民生关注,weibo,https://weibo.com/3055280253/0a174194,2026-06-13T12:00:00.000000,2026-03-22T13:18:51,111.291975,30.697682,527972.5,3397493.66,111.297647,30.695253,规划范围,
e0333,规划范围,磨基山公园,长江物业费的收费不合理问题，已经反映多次,长江物业费的收费不合理问题，已经反映多次,20,relevant,社区,好奇,3,low,长江物业费的收费不合理问题，已经反映多次,0.83,True,13,1,生活服务|宜昌|社区,xiaohongshu,https://www.xiaohongshu.com/explore/c4ad76abd964f0f49543e8d8,2026-06-13T12:00:00.000000,2026-05-10T16:41:40,111.281066,30.717829,526921.77,3399724.59,111.286716,30.715396,规划范围,
e0334,规划范围,东山大道,港窑路附近充电桩被占了，出行很不方便,港窑路附近充电桩被占了，出行很不方便,18,relevant,社区,怀念,4,medium,港窑路附近充电桩被占了，出行很不方便,0.91,True,577,34,社区|宜昌|民生,xiaohongshu,https://www.xiaohongshu.com/explore/6211d330ba8b307f612371b3,2026-06-13T12:00:00.000000,2026-05-30T19:58:52,111.303221,30.732107,529039.6,3401313.05,111.308925,30.729713,规划范围,
e0335,规划范围,伍家岗区,春天的锦绣社区，滨江的文化墙更新了氛围很好,春天的锦绣社区，滨江的文化墙更新了氛围很好,21,relevant,城市,愤怒,1,low,春天的锦绣社区，滨江的文化墙更新了氛围很,0.96,True,68,6,打卡|宜昌|文化|城市记忆,xiaohongshu,https://www.xiaohongshu.com/explore/9dfa1767120f369536b8cb00,2026-06-13T12:00:00.000000,2026-04-01T23:38:21,111.330768,30.727072,531679.45,3400762.3,111.336548,30.724726,规划范围,
