{"type":"FeatureCollection","features":[{"type":"Feature","geometry":{"type":"Point","coordinates":[111.288,30.692]},"properties":{"name":"解放路步行街","zone_id":"riverside","zone_name":"滨江公园广场","baidu_level1":"购物","baidu_level2":"步行街/商业街","area":"西陵-解放路","source":"seed"}},{"type":"Feature","geometry":{"type":"Point","coordinates":[111.29,30.696]},"properties":{"name":"夷陵广场","zone_id":"wanda_cbd","zone_name":"万达-国贸商圈","baidu_level1":"休闲娱乐","baidu_level2":"休闲广场","area":"西陵-夷陵广场","source":"seed"}},{"type":"Feature","geometry":{"type":"Point","coordinates":[111.305,30.696]},"properties":{"name":"铁路坝商圈","zone_id":"wanda_cbd","zone_name":"万达-国贸商圈","baidu_level1":"购物","baidu_level2":"百货商场","area":"西陵-铁路坝","source":"seed"}},{"type":"Feature","geometry":{"type":"Point","coordinates":[111.312,30.702]},"properties":{"name":"CBD 万达广场","zone_id":"wanda_cbd","zone_name":"万达-国贸商圈","baidu_level1":"购物","baidu_level2":"购物中心","area":"西陵-CBD","source":"seed"}},{"type":"Feature","geometry":{"type":"Point","coordinates":[111.298,30.697]},"properties":{"name":"兴发广场","zone_id":"wanda_cbd","zone_name":"万达-国贸商圈","baidu_level1":"购物","baidu_level2":"购物中心","area":"西陵-兴发","source":"seed"}},{"type":"Feature","geometry":{"type":"Point","coordinates":[111.302,30.7]},"properties":{"name":"卓悦广场","zone_id":"wanda_cbd","zone_name":"万达-国贸商圈","baidu_level1":"购物","baidu_level2":"购物中心","area":"西陵-卓悦","source":"seed"}},{"type":"Feature","geometry":{"type":"Point","coordinates":[111.308,30.703]},"properties":{"name":"水悦城","zone_id":"wanda_cbd","zone_name":"万达-国贸商圈","baidu_level1":"购物","baidu_level2":"购物中心","area":"西陵-水悦城","source":"seed"}},{"type":"Feature","geometry":{"type":"Point","coordinates":[111.318,30.707]},"properties":{"name":"太古里（西陵）","zone_id":"wanda_cbd","zone_name":"万达-国贸商圈","baidu_level1":"购物","baidu_level2":"购物中心","area":"西陵-太古里","source":"seed"}},{"type":"Feature","geometry":{"type":"Point","coordinates":[111.368,30.728]},"properties":{"name":"伍家岗万达","zone_id":"wanda_cbd","zone_name":"万达-国贸商圈","baidu_level1":"购物","baidu_level2":"购物中心","area":"伍家-万达","source":"seed"}},{"type":"Feature","geometry":{"type":"Point","coordinates":[111.294,30.696]},"properties":{"name":"国贸大厦","zone_id":"wanda_cbd","zone_name":"万达-国贸商圈","baidu_level1":"购物","baidu_level2":"百货商场","area":"西陵-国贸","source":"seed"}},{"type":"Feature","geometry":{"type":"Point","coordinates":[111.293,30.694]},"properties":{"name":"大洋百货","zone_id":"wanda_cbd","zone_name":"万达-国贸商圈","baidu_level1":"购物","baidu_level2":"百货商场","area":"西陵-大洋","source":"seed"}},{"type":"Feature","geometry":{"type":"Point","coordinates":[111.291,30.693]},"properties":{"name":"新世纪百货","zone_id":"wanda_cbd","zone_name":"万达-国贸商圈","baidu_level1":"购物","baidu_level2":"百货商场","area":"西陵-新世纪","source":"seed"}},{"type":"Feature","geometry":{"type":"Point","coordinates":[111.313,30.703]},"properties":{"name":"雅斯百货（CBD 店）","zone_id":"wanda_cbd","zone_name":"万达-国贸商圈","baidu_level1":"购物","baidu_level2":"百货商场","area":"西陵-雅斯","source":"seed"}},{"type":"Feature","geometry":{"type":"Point","coordinates":[111.364,30.728]},"properties":{"name":"雅斯广场（伍家店）","zone_id":"wanda_cbd","zone_name":"万达-国贸商圈","baidu_level1":"购物","baidu_level2":"购物中心","area":"伍家-雅斯","source":"seed"}},{"type":"Feature","geometry":{"type":"Point","coordinates":[111.311,30.702]},"properties":{"name":"北山超市（CBD）","zone_id":"wanda_cbd","zone_name":"万达-国贸商圈","baidu_level1":"购物","baidu_level2":"超市","area":"西陵-北山","source":"seed"}},{"type":"Feature","geometry":{"type":"Point","coordinates":[111.366,30.729]},"properties":{"name":"东方超市（伍家）","zone_id":"wanda_cbd","zone_name":"万达-国贸商圈","baidu_level1":"购物","baidu_level2":"超市","area":"伍家-东方","source":"seed"}},{"type":"Feature","geometry":{"type":"Point","coordinates":[111.305,30.698]},"properties":{"name":"悦活里超市","zone_id":"wanda_cbd","zone_name":"万达-国贸商圈","baidu_level1":"购物","baidu_level2":"超市","area":"西陵-悦活里","source":"seed"}},{"type":"Feature","geometry":{"type":"Point","coordinates":[111.275,30.688]},"properties":{"name":"二马路（主街）","zone_id":"residential","zone_name":"居住社区","baidu_level1":"道路","baidu_level2":"城市支路","area":"西陵-二马路","source":"seed"}},{"type":"Feature","geometry":{"type":"Point","coordinates":[111.272,30.685]},"properties":{"name":"大南门","zone_id":"general","zone_name":"通用市区","baidu_level1":"旅游景点","baidu_level2":"文物古迹","area":"西陵-大南门","source":"seed"}},{"type":"Feature","geometry":{"type":"Point","coordinates":[111.28,30.69]},"properties":{"name":"红星路","zone_id":"residential","zone_name":"居住社区","baidu_level1":"道路","baidu_level2":"城市支路","area":"西陵-红星路","source":"seed"}},{"type":"Feature","geometry":{"type":"Point","coordinates":[111.274,30.689]},"properties":{"name":"献福路","zone_id":"transit_hub","zone_name":"交通枢纽","baidu_level1":"道路","baidu_level2":"城市支路","area":"西陵-献福路","source":"seed"}},{"type":"Feature","geometry":{"type":"Point","coordinates":[111.278,30.692]},"properties":{"name":"樵湖岭","zone_id":"residential","zone_name":"居住社区","baidu_level1":"生活服务","baidu_level2":"公用事业","area":"西陵-樵湖岭","source":"seed"}},{"type":"Feature","geometry":{"type":"Point","coordinates":[111.273,30.688]},"properties":{"name":"文庙（西陵）","zone_id":"general","zone_name":"通用市区","baidu_level1":"旅游景点","baidu_level2":"文物古迹","area":"西陵-文庙","source":"seed"}},{"type":"Feature","geometry":{"type":"Point","coordinates":[111.279,30.69]},"properties":{"name":"古佛寺","zone_id":"residential","zone_name":"居住社区","baidu_level1":"旅游景点","baidu_level2":"寺庙","area":"西陵-古佛寺","source":"seed"}},{"type":"Feature","geometry":{"type":"Point","coordinates":[111.272,30.687]},"properties":{"name":"西陵剧场","zone_id":"general","zone_name":"通用市区","baidu_level1":"休闲娱乐","baidu_level2":"剧院","area":"西陵-二马路","source":"seed"}},{"type":"Feature","geometry":{"type":"Point","coordinates":[111.2755,30.6885]},"properties":{"name":"二马路老茶馆（老字号）","zone_id":"transit_hub","zone_name":"交通枢纽","baidu_level1":"美食","baidu_level2":"茶座","area":"西陵-二马路","source":"seed"}},{"type":"Feature","geometry":{"type":"Point","coordinates":[111.276,30.6875]},"properties":{"name":"九码头（老字号）","zone_id":"residential","zone_name":"居住社区","baidu_level1":"美食","baidu_level2":"中餐厅","area":"西陵-二马路","source":"seed"}},{"type":"Feature","geometry":{"type":"Point","coordinates":[111.2745,30.688]},"properties":{"name":"陶然居（二马路店）","zone_id":"residential","zone_name":"居住社区","baidu_level1":"美食","baidu_level2":"中餐厅","area":"西陵-二马路","source":"seed"}},{"type":"Feature","geometry":{"type":"Point","coordinates":[111.274,30.6875]},"properties":{"name":"老宜昌（老字号）","zone_id":"residential","zone_name":"居住社区","baidu_level1":"美食","baidu_level2":"中餐厅","area":"西陵-二马路","source":"seed"}},{"type":"Feature","geometry":{"type":"Point","coordinates":[111.291,30.694]},"properties":{"name":"宜昌市民中心","zone_id":"wanda_cbd","zone_name":"万达-国贸商圈","baidu_level1":"政府机构","baidu_level2":"各级政府","area":"西陵-市民中心","source":"seed"}},{"type":"Feature","geometry":{"type":"Point","coordinates":[111.29,30.693]},"properties":{"name":"西陵区政府","zone_id":"wanda_cbd","zone_name":"万达-国贸商圈","baidu_level1":"政府机构","baidu_level2":"各级政府","area":"西陵-政府","source":"seed"}},{"type":"Feature","geometry":{"type":"Point","coordinates":[111.365,30.733]},"properties":{"name":"伍家岗区政府","zone_id":"wanda_cbd","zone_name":"万达-国贸商圈","baidu_level1":"政府机构","baidu_level2":"各级政府","area":"伍家-政府","source":"seed"}},{"type":"Feature","geometry":{"type":"Point","coordinates":[111.293,30.695]},"properties":{"name":"宜昌市规划局","zone_id":"wanda_cbd","zone_name":"万达-国贸商圈","baidu_level1":"政府机构","baidu_level2":"行政单位","area":"西陵-规划","source":"seed"}},{"type":"Feature","geometry":{"type":"Point","coordinates":[111.292,30.6945]},"properties":{"name":"宜昌市住建局","zone_id":"wanda_cbd","zone_name":"万达-国贸商圈","baidu_level1":"政府机构","baidu_level2":"行政单位","area":"西陵-住建","source":"seed"}},{"type":"Feature","geometry":{"type":"Point","coordinates":[111.294,30.694]},"properties":{"name":"宜昌市城管委","zone_id":"wanda_cbd","zone_name":"万达-国贸商圈","baidu_level1":"政府机构","baidu_level2":"行政单位","area":"西陵-城管","source":"seed"}},{"type":"Feature","geometry":{"type":"Point","coordinates":[111.295,30.695]},"properties":{"name":"宜昌市公安局","zone_id":"wanda_cbd","zone_name":"万达-国贸商圈","baidu_level1":"政府机构","baidu_level2":"公检法机构","area":"西陵-公安","source":"seed"}},{"type":"Feature","geometry":{"type":"Point","coordinates":[111.291,30.694]},"properties":{"name":"12345 政务服务热线","zone_id":"wanda_cbd","zone_name":"万达-国贸商圈","baidu_level1":"政府机构","baidu_level2":"行政单位","area":"西陵-12345","source":"seed"}},{"type":"Feature","geometry":{"type":"Point","coordinates":[111.275,30.69]},"properties":{"name":"西陵区市民服务中心","zone_id":"transit_hub","zone_name":"交通枢纽","baidu_level1":"政府机构","baidu_level2":"行政单位","area":"西陵-二马路","source":"seed"}},{"type":"Feature","geometry":{"type":"Point","coordinates":[111.299,30.702]},"properties":{"name":"宜昌市中心医院","zone_id":"transit_hub","zone_name":"交通枢纽","baidu_level1":"医疗","baidu_level2":"综合医院","area":"西陵-中心医院","source":"seed"}},{"type":"Feature","geometry":{"type":"Point","coordinates":[111.285,30.691]},"properties":{"name":"宜昌市第一人民医院","zone_id":"riverside","zone_name":"滨江公园广场","baidu_level1":"医疗","baidu_level2":"综合医院","area":"西陵-一医院","source":"seed"}},{"type":"Feature","geometry":{"type":"Point","coordinates":[111.281,30.69]},"properties":{"name":"宜昌市第二人民医院","zone_id":"residential","zone_name":"居住社区","baidu_level1":"医疗","baidu_level2":"综合医院","area":"西陵-二医院","source":"seed"}},{"type":"Feature","geometry":{"type":"Point","coordinates":[111.296,30.699]},"properties":{"name":"宜昌市中医医院","zone_id":"wanda_cbd","zone_name":"万达-国贸商圈","baidu_level1":"医疗","baidu_level2":"专科医院","area":"西陵-中医院","source":"seed"}},{"type":"Feature","geometry":{"type":"Point","coordinates":[111.361,30.73]},"properties":{"name":"伍家医院","zone_id":"wanda_cbd","zone_name":"万达-国贸商圈","baidu_level1":"医疗","baidu_level2":"综合医院","area":"伍家-医院","source":"seed"}},{"type":"Feature","geometry":{"type":"Point","coordinates":[111.293,30.708]},"properties":{"name":"三峡大学附属仁和医院","zone_id":"general","zone_name":"通用市区","baidu_level1":"医疗","baidu_level2":"综合医院","area":"西陵-仁和","source":"seed"}},{"type":"Feature","geometry":{"type":"Point","coordinates":[111.29,30.693]},"properties":{"name":"西陵区疾控中心","zone_id":"wanda_cbd","zone_name":"万达-国贸商圈","baidu_level1":"医疗","baidu_level2":"疾控中心","area":"西陵-疾控","source":"seed"}},{"type":"Feature","geometry":{"type":"Point","coordinates":[111.292,30.708]},"properties":{"name":"三峡大学","zone_id":"general","zone_name":"通用市区","baidu_level1":"教育培训","baidu_level2":"高等院校","area":"西陵-三大学","source":"seed"}},{"type":"Feature","geometry":{"type":"Point","coordinates":[111.284,30.692]},"properties":{"name":"宜昌一中","zone_id":"ermalu_oldstreet","zone_name":"二马路-解放路核心老街","baidu_level1":"教育培训","baidu_level2":"中学","area":"西陵-一中","source":"seed"}},{"type":"Feature","geometry":{"type":"Point","coordinates":[111.281,30.697]},"properties":{"name":"夷陵中学","zone_id":"ermalu_oldstreet","zone_name":"二马路-解放路核心老街","baidu_level1":"教育培训","baidu_level2":"中学","area":"西陵-夷陵中学","source":"seed"}},{"type":"Feature","geometry":{"type":"Point","coordinates":[111.286,30.694]},"properties":{"name":"宜昌市二中","zone_id":"ermalu_oldstreet","zone_name":"二马路-解放路核心老街","baidu_level1":"教育培训","baidu_level2":"中学","area":"西陵-二中","source":"seed"}},{"type":"Feature","geometry":{"type":"Point","coordinates":[111.289,30.693]},"properties":{"name":"宜昌市实验小学","zone_id":"wanda_cbd","zone_name":"万达-国贸商圈","baidu_level1":"教育培训","baidu_level2":"小学","area":"西陵-实验小学","source":"seed"}},{"type":"Feature","geometry":{"type":"Point","coordinates":[111.28,30.689]},"properties":{"name":"西陵区实验小学","zone_id":"residential","zone_name":"居住社区","baidu_level1":"教育培训","baidu_level2":"小学","area":"西陵-西实小","source":"seed"}},{"type":"Feature","geometry":{"type":"Point","coordinates":[111.361,30.729]},"properties":{"name":"伍家岗区实验小学","zone_id":"wanda_cbd","zone_name":"万达-国贸商圈","baidu_level1":"教育培训","baidu_level2":"小学","area":"伍家-伍实小","source":"seed"}},{"type":"Feature","geometry":{"type":"Point","coordinates":[111.36,30.731]},"properties":{"name":"伍家岗区幼儿园（示范）","zone_id":"wanda_cbd","zone_name":"万达-国贸商圈","baidu_level1":"教育培训","baidu_level2":"幼儿园","area":"伍家-幼儿园","source":"seed"}},{"type":"Feature","geometry":{"type":"Point","coordinates":[111.309,30.703]},"properties":{"name":"宜昌站","zone_id":"wanda_cbd","zone_name":"万达-国贸商圈","baidu_level1":"交通设施","baidu_level2":"火车站","area":"西陵-宜昌站","source":"seed"}},{"type":"Feature","geometry":{"type":"Point","coordinates":[111.396,30.74]},"properties":{"name":"宜昌东站","zone_id":"transit_hub","zone_name":"交通枢纽","baidu_level1":"交通设施","baidu_level2":"火车站","area":"伍家-宜昌东","source":"seed"}},{"type":"Feature","geometry":{"type":"Point","coordinates":[111.48,30.78]},"properties":{"name":"三峡机场","zone_id":"transit_hub","zone_name":"交通枢纽","baidu_level1":"交通设施","baidu_level2":"飞机场","area":"猇亭-三峡机场","source":"seed"}},{"type":"Feature","geometry":{"type":"Point","coordinates":[111.275,30.691]},"properties":{"name":"宜昌港（客运）","zone_id":"transit_hub","zone_name":"交通枢纽","baidu_level1":"交通设施","baidu_level2":"港口","area":"西陵-宜昌港","source":"seed"}},{"type":"Feature","geometry":{"type":"Point","coordinates":[111.3,30.702]},"properties":{"name":"宜昌汽车客运中心站","zone_id":"wanda_cbd","zone_name":"万达-国贸商圈","baidu_level1":"交通设施","baidu_level2":"长途汽车站","area":"西陵-客运中心","source":"seed"}},{"type":"Feature","geometry":{"type":"Point","coordinates":[111.27,30.701]},"properties":{"name":"夷陵长江大桥","zone_id":"transit_hub","zone_name":"交通枢纽","baidu_level1":"交通设施","baidu_level2":"桥","area":"西陵-夷陵桥","source":"seed"}},{"type":"Feature","geometry":{"type":"Point","coordinates":[111.378,30.728]},"properties":{"name":"宜昌长江大桥","zone_id":"transit_hub","zone_name":"交通枢纽","baidu_level1":"交通设施","baidu_level2":"桥","area":"伍家-宜昌桥","source":"seed"}},{"type":"Feature","geometry":{"type":"Point","coordinates":[111.401,30.736]},"properties":{"name":"伍家岗长江大桥","zone_id":"transit_hub","zone_name":"交通枢纽","baidu_level1":"交通设施","baidu_level2":"桥","area":"伍家-伍家桥","source":"seed"}},{"type":"Feature","geometry":{"type":"Point","coordinates":[111.245,30.69]},"properties":{"name":"至喜长江大桥","zone_id":"riverside","zone_name":"滨江公园广场","baidu_level1":"交通设施","baidu_level2":"桥","area":"西陵-至喜桥","source":"seed"}},{"type":"Feature","geometry":{"type":"Point","coordinates":[111.304,30.7]},"properties":{"name":"东山大道 BRT 站","zone_id":"wanda_cbd","zone_name":"万达-国贸商圈","baidu_level1":"交通设施","baidu_level2":"公交车站","area":"西陵-BRT","source":"seed"}},{"type":"Feature","geometry":{"type":"Point","coordinates":[111.306,30.7]},"properties":{"name":"沿江大道 BRT 站","zone_id":"wanda_cbd","zone_name":"万达-国贸商圈","baidu_level1":"交通设施","baidu_level2":"公交车站","area":"西陵-BRT","source":"seed"}},{"type":"Feature","geometry":{"type":"Point","coordinates":[111.308,30.698]},"properties":{"name":"夷陵大道 BRT 站","zone_id":"wanda_cbd","zone_name":"万达-国贸商圈","baidu_level1":"交通设施","baidu_level2":"公交车站","area":"西陵-BRT","source":"seed"}},{"type":"Feature","geometry":{"type":"Point","coordinates":[111.332,30.713]},"properties":{"name":"发展大道 BRT 站","zone_id":"riverside","zone_name":"滨江公园广场","baidu_level1":"交通设施","baidu_level2":"公交车站","area":"伍家-BRT","source":"seed"}},{"type":"Feature","geometry":{"type":"Point","coordinates":[111.354,30.72]},"properties":{"name":"城东大道 BRT 站","zone_id":"transit_hub","zone_name":"交通枢纽","baidu_level1":"交通设施","baidu_level2":"公交车站","area":"伍家-BRT","source":"seed"}},{"type":"Feature","geometry":{"type":"Point","coordinates":[111.369,30.73]},"properties":{"name":"中建·宜昌之星 BRT 站","zone_id":"wanda_cbd","zone_name":"万达-国贸商圈","baidu_level1":"交通设施","baidu_level2":"公交车站","area":"伍家-BRT","source":"seed"}},{"type":"Feature","geometry":{"type":"Point","coordinates":[111.306,30.699]},"properties":{"name":"宜昌公交集团","zone_id":"wanda_cbd","zone_name":"万达-国贸商圈","baidu_level1":"交通设施","baidu_level2":"公交车站","area":"西陵-公交","source":"seed"}},{"type":"Feature","geometry":{"type":"Point","coordinates":[111.314,30.703]},"properties":{"name":"中石化加油站（CBD）","zone_id":"wanda_cbd","zone_name":"万达-国贸商圈","baidu_level1":"交通设施","baidu_level2":"加油加气站","area":"西陵-加油站","source":"seed"}},{"type":"Feature","geometry":{"type":"Point","coordinates":[111.365,30.732]},"properties":{"name":"中石油加油站（伍家）","zone_id":"wanda_cbd","zone_name":"万达-国贸商圈","baidu_level1":"交通设施","baidu_level2":"加油加气站","area":"伍家-加油站","source":"seed"}},{"type":"Feature","geometry":{"type":"Point","coordinates":[111.312,30.703]},"properties":{"name":"特来电充电站（CBD）","zone_id":"wanda_cbd","zone_name":"万达-国贸商圈","baidu_level1":"交通设施","baidu_level2":"充电站","area":"西陵-充电站","source":"seed"}},{"type":"Feature","geometry":{"type":"Point","coordinates":[111.365,30.729]},"properties":{"name":"伍家岗公共停车场","zone_id":"wanda_cbd","zone_name":"万达-国贸商圈","baidu_level1":"交通设施","baidu_level2":"停车场","area":"伍家-停车场","source":"seed"}},{"type":"Feature","geometry":{"type":"Point","coordinates":[111.288,30.693]},"properties":{"name":"滨江公园","zone_id":"wanda_cbd","zone_name":"万达-国贸商圈","baidu_level1":"旅游景点","baidu_level2":"公园","area":"西陵-滨江","source":"seed"}},{"type":"Feature","geometry":{"type":"Point","coordinates":[111.292,30.694]},"properties":{"name":"滨江公园（双亭广场）","zone_id":"wanda_cbd","zone_name":"万达-国贸商圈","baidu_level1":"旅游景点","baidu_level2":"公园","area":"西陵-滨江","source":"seed"}},{"type":"Feature","geometry":{"type":"Point","coordinates":[111.285,30.692]},"properties":{"name":"滨江公园（镇江阁）","zone_id":"riverside","zone_name":"滨江公园广场","baidu_level1":"旅游景点","baidu_level2":"景点","area":"西陵-滨江","source":"seed"}},{"type":"Feature","geometry":{"type":"Point","coordinates":[111.327,30.718]},"properties":{"name":"东山公园","zone_id":"riverside","zone_name":"滨江公园广场","baidu_level1":"旅游景点","baidu_level2":"公园","area":"伍家-东山","source":"seed"}},{"type":"Feature","geometry":{"type":"Point","coordinates":[111.325,30.709]},"properties":{"name":"磨基山森林公园","zone_id":"riverside","zone_name":"滨江公园广场","baidu_level1":"旅游景点","baidu_level2":"风景区","area":"西陵-磨基山","source":"seed"}},{"type":"Feature","geometry":{"type":"Point","coordinates":[111.288,30.693]},"properties":{"name":"儿童公园","zone_id":"wanda_cbd","zone_name":"万达-国贸商圈","baidu_level1":"旅游景点","baidu_level2":"公园","area":"西陵-儿童公园","source":"seed"}},{"type":"Feature","geometry":{"type":"Point","coordinates":[111.346,30.722]},"properties":{"name":"城东公园","zone_id":"riverside","zone_name":"滨江公园广场","baidu_level1":"旅游景点","baidu_level2":"公园","area":"伍家-城东","source":"seed"}},{"type":"Feature","geometry":{"type":"Point","coordinates":[111.35,30.727]},"properties":{"name":"求索公园","zone_id":"riverside","zone_name":"滨江公园广场","baidu_level1":"旅游景点","baidu_level2":"公园","area":"伍家-求索","source":"seed"}},{"type":"Feature","geometry":{"type":"Point","coordinates":[111.313,30.702]},"properties":{"name":"和平公园","zone_id":"wanda_cbd","zone_name":"万达-国贸商圈","baidu_level1":"旅游景点","baidu_level2":"公园","area":"西陵-和平","source":"seed"}},{"type":"Feature","geometry":{"type":"Point","coordinates":[111.285,30.694]},"properties":{"name":"三峡博物馆","zone_id":"ermalu_oldstreet","zone_name":"二马路-解放路核心老街","baidu_level1":"文化传媒","baidu_level2":"博物馆","area":"西陵-博物馆","source":"seed"}},{"type":"Feature","geometry":{"type":"Point","coordinates":[111.29,30.695]},"properties":{"name":"宜昌市规划展览馆","zone_id":"wanda_cbd","zone_name":"万达-国贸商圈","baidu_level1":"文化传媒","baidu_level2":"展览馆","area":"西陵-规划馆","source":"seed"}},{"type":"Feature","geometry":{"type":"Point","coordinates":[111.287,30.693]},"properties":{"name":"宜昌市美术馆","zone_id":"riverside","zone_name":"滨江公园广场","baidu_level1":"文化传媒","baidu_level2":"美术馆","area":"西陵-美术馆","source":"seed"}},{"type":"Feature","geometry":{"type":"Point","coordinates":[111.289,30.695]},"properties":{"name":"宜昌市图书馆","zone_id":"wanda_cbd","zone_name":"万达-国贸商圈","baidu_level1":"教育培训","baidu_level2":"图书馆","area":"西陵-图书馆","source":"seed"}},{"type":"Feature","geometry":{"type":"Point","coordinates":[111.285,30.693]},"properties":{"name":"宜昌科技馆","zone_id":"ermalu_oldstreet","zone_name":"二马路-解放路核心老街","baidu_level1":"教育培训","baidu_level2":"科技馆","area":"西陵-科技馆","source":"seed"}},{"type":"Feature","geometry":{"type":"Point","coordinates":[111.275,30.69]},"properties":{"name":"西陵区文化馆","zone_id":"transit_hub","zone_name":"交通枢纽","baidu_level1":"文化传媒","baidu_level2":"文化宫","area":"西陵-二马路","source":"seed"}},{"type":"Feature","geometry":{"type":"Point","coordinates":[111.291,30.692]},"properties":{"name":"屈原文化园","zone_id":"wanda_cbd","zone_name":"万达-国贸商圈","baidu_level1":"文化传媒","baidu_level2":"展览馆","area":"西陵-屈原园","source":"seed"}},{"type":"Feature","geometry":{"type":"Point","coordinates":[111.314,30.703]},"properties":{"name":"中影国际影城（CBD）","zone_id":"wanda_cbd","zone_name":"万达-国贸商圈","baidu_level1":"休闲娱乐","baidu_level2":"电影院","area":"西陵-影院","source":"seed"}},{"type":"Feature","geometry":{"type":"Point","coordinates":[111.312,30.702]},"properties":{"name":"万达影城（CBD）","zone_id":"wanda_cbd","zone_name":"万达-国贸商圈","baidu_level1":"休闲娱乐","baidu_level2":"电影院","area":"西陵-万达影城","source":"seed"}},{"type":"Feature","geometry":{"type":"Point","coordinates":[111.368,30.728]},"properties":{"name":"横店影视（伍家）","zone_id":"wanda_cbd","zone_name":"万达-国贸商圈","baidu_level1":"休闲娱乐","baidu_level2":"电影院","area":"伍家-影院","source":"seed"}},{"type":"Feature","geometry":{"type":"Point","coordinates":[111.31,30.7]},"properties":{"name":"麦颂 KTV","zone_id":"wanda_cbd","zone_name":"万达-国贸商圈","baidu_level1":"休闲娱乐","baidu_level2":"ktv","area":"西陵-KTV","source":"seed"}},{"type":"Feature","geometry":{"type":"Point","coordinates":[111.366,30.727]},"properties":{"name":"米乐星 KTV（伍家）","zone_id":"wanda_cbd","zone_name":"万达-国贸商圈","baidu_level1":"休闲娱乐","baidu_level2":"ktv","area":"伍家-KTV","source":"seed"}},{"type":"Feature","geometry":{"type":"Point","coordinates":[111.311,30.702]},"properties":{"name":"星动健身（CBD）","zone_id":"wanda_cbd","zone_name":"万达-国贸商圈","baidu_level1":"运动健身","baidu_level2":"健身中心","area":"西陵-健身","source":"seed"}},{"type":"Feature","geometry":{"type":"Point","coordinates":[111.341,30.733]},"properties":{"name":"奥体中心","zone_id":"wanda_cbd","zone_name":"万达-国贸商圈","baidu_level1":"运动健身","baidu_level2":"体育场馆","area":"伍家-奥体","source":"seed"}},{"type":"Feature","geometry":{"type":"Point","coordinates":[111.286,30.694]},"properties":{"name":"屈原国际大酒店","zone_id":"ermalu_oldstreet","zone_name":"二马路-解放路核心老街","baidu_level1":"酒店","baidu_level2":"星级酒店","area":"西陵-酒店","source":"seed"}},{"type":"Feature","geometry":{"type":"Point","coordinates":[111.313,30.703]},"properties":{"name":"宜昌万达瑞华酒店","zone_id":"wanda_cbd","zone_name":"万达-国贸商圈","baidu_level1":"酒店","baidu_level2":"星级酒店","area":"西陵-瑞华","source":"seed"}},{"type":"Feature","geometry":{"type":"Point","coordinates":[111.303,30.7]},"properties":{"name":"宜昌均瑶禧玥酒店","zone_id":"wanda_cbd","zone_name":"万达-国贸商圈","baidu_level1":"酒店","baidu_level2":"星级酒店","area":"西陵-禧玥","source":"seed"}},{"type":"Feature","geometry":{"type":"Point","coordinates":[111.292,30.695]},"properties":{"name":"锦江都城（西陵）","zone_id":"wanda_cbd","zone_name":"万达-国贸商圈","baidu_level1":"酒店","baidu_level2":"快捷酒店","area":"西陵-锦江","source":"seed"}},{"type":"Feature","geometry":{"type":"Point","coordinates":[111.363,30.73]},"properties":{"name":"汉庭酒店（伍家）","zone_id":"wanda_cbd","zone_name":"万达-国贸商圈","baidu_level1":"酒店","baidu_level2":"快捷酒店","area":"伍家-汉庭","source":"seed"}},{"type":"Feature","geometry":{"type":"Point","coordinates":[111.31,30.7]},"properties":{"name":"桔子水晶（CBD）","zone_id":"wanda_cbd","zone_name":"万达-国贸商圈","baidu_level1":"酒店","baidu_level2":"快捷酒店","area":"西陵-桔子","source":"seed"}},{"type":"Feature","geometry":{"type":"Point","coordinates":[111.298,30.7]},"properties":{"name":"工商银行（西陵支行）","zone_id":"riverside","zone_name":"滨江公园广场","baidu_level1":"金融","baidu_level2":"银行","area":"西陵-工行","source":"seed"}},{"type":"Feature","geometry":{"type":"Point","coordinates":[111.311,30.702]},"properties":{"name":"建设银行（CBD 支行）","zone_id":"wanda_cbd","zone_name":"万达-国贸商圈","baidu_level1":"金融","baidu_level2":"银行","area":"西陵-建行","source":"seed"}},{"type":"Feature","geometry":{"type":"Point","coordinates":[111.364,30.728]},"properties":{"name":"农业银行（伍家支行）","zone_id":"wanda_cbd","zone_name":"万达-国贸商圈","baidu_level1":"金融","baidu_level2":"银行","area":"伍家-农行","source":"seed"}},{"type":"Feature","geometry":{"type":"Point","coordinates":[111.312,30.701]},"properties":{"name":"中国银行（CBD）","zone_id":"wanda_cbd","zone_name":"万达-国贸商圈","baidu_level1":"金融","baidu_level2":"银行","area":"西陵-中行","source":"seed"}},{"type":"Feature","geometry":{"type":"Point","coordinates":[111.313,30.703]},"properties":{"name":"招商银行（CBD）","zone_id":"wanda_cbd","zone_name":"万达-国贸商圈","baidu_level1":"金融","baidu_level2":"银行","area":"西陵-招行","source":"seed"}},{"type":"Feature","geometry":{"type":"Point","coordinates":[111.362,30.729]},"properties":{"name":"湖北银行（伍家）","zone_id":"wanda_cbd","zone_name":"万达-国贸商圈","baidu_level1":"金融","baidu_level2":"银行","area":"伍家-湖北行","source":"seed"}},{"type":"Feature","geometry":{"type":"Point","coordinates":[111.29,30.693]},"properties":{"name":"邮储银行（西陵）","zone_id":"wanda_cbd","zone_name":"万达-国贸商圈","baidu_level1":"金融","baidu_level2":"银行","area":"西陵-邮储","source":"seed"}},{"type":"Feature","geometry":{"type":"Point","coordinates":[111.332,30.718]},"properties":{"name":"东山花园","zone_id":"riverside","zone_name":"滨江公园广场","baidu_level1":"房地产","baidu_level2":"住宅区","area":"伍家-东山花园","source":"seed"}},{"type":"Feature","geometry":{"type":"Point","coordinates":[111.365,30.733]},"properties":{"name":"伍家岗住宅区","zone_id":"wanda_cbd","zone_name":"万达-国贸商圈","baidu_level1":"房地产","baidu_level2":"住宅区","area":"伍家-住宅","source":"seed"}},{"type":"Feature","geometry":{"type":"Point","coordinates":[111.38,30.748]},"properties":{"name":"伍家北住宅区","zone_id":"residential","zone_name":"居住社区","baidu_level1":"房地产","baidu_level2":"住宅区","area":"伍家-北住宅","source":"seed"}},{"type":"Feature","geometry":{"type":"Point","coordinates":[111.279,30.69]},"properties":{"name":"西陵老居住区","zone_id":"residential","zone_name":"居住社区","baidu_level1":"房地产","baidu_level2":"住宅区","area":"西陵-老居住","source":"seed"}},{"type":"Feature","geometry":{"type":"Point","coordinates":[111.314,30.703]},"properties":{"name":"CBD 高层住宅区","zone_id":"wanda_cbd","zone_name":"万达-国贸商圈","baidu_level1":"房地产","baidu_level2":"住宅区","area":"西陵-CBD住宅","source":"seed"}},{"type":"Feature","geometry":{"type":"Point","coordinates":[111.288,30.691]},"properties":{"name":"上上城","zone_id":"riverside","zone_name":"滨江公园广场","baidu_level1":"房地产","baidu_level2":"住宅区","area":"西陵-上上城","source":"seed"}},{"type":"Feature","geometry":{"type":"Point","coordinates":[111.35,30.727]},"properties":{"name":"香格里拉花园","zone_id":"riverside","zone_name":"滨江公园广场","baidu_level1":"房地产","baidu_level2":"住宅区","area":"伍家-香格里拉","source":"seed"}},{"type":"Feature","geometry":{"type":"Point","coordinates":[111.369,30.73]},"properties":{"name":"中建宜昌之星","zone_id":"wanda_cbd","zone_name":"万达-国贸商圈","baidu_level1":"房地产","baidu_level2":"住宅区","area":"伍家-中建星","source":"seed"}},{"type":"Feature","geometry":{"type":"Point","coordinates":[111.275,30.689]},"properties":{"name":"二马路老社区（西陵）","zone_id":"transit_hub","zone_name":"交通枢纽","baidu_level1":"房地产","baidu_level2":"住宅区","area":"西陵-二马路社区","source":"seed"}},{"type":"Feature","geometry":{"type":"Point","coordinates":[111.2755,30.6885]},"properties":{"name":"二马路 1 号院落（拟改造）","zone_id":"transit_hub","zone_name":"交通枢纽","baidu_level1":"房地产","baidu_level2":"住宅区","area":"西陵-二马路","source":"seed"}},{"type":"Feature","geometry":{"type":"Point","coordinates":[111.276,30.688]},"properties":{"name":"二马路 8 号老茶馆","zone_id":"residential","zone_name":"居住社区","baidu_level1":"美食","baidu_level2":"茶座","area":"西陵-二马路","source":"seed"}},{"type":"Feature","geometry":{"type":"Point","coordinates":[111.2745,30.6875]},"properties":{"name":"二马路非遗工坊","zone_id":"residential","zone_name":"居住社区","baidu_level1":"文化传媒","baidu_level2":"艺术团体","area":"西陵-二马路","source":"seed"}},{"type":"Feature","geometry":{"type":"Point","coordinates":[111.277,30.688]},"properties":{"name":"二马路 18 号文创店","zone_id":"residential","zone_name":"居住社区","baidu_level1":"购物","baidu_level2":"商铺","area":"西陵-二马路","source":"seed"}},{"type":"Feature","geometry":{"type":"Point","coordinates":[111.2755,30.6887]},"properties":{"name":"二马路改造指挥部","zone_id":"transit_hub","zone_name":"交通枢纽","baidu_level1":"政府机构","baidu_level2":"行政单位","area":"西陵-二马路","source":"seed"}},{"type":"Feature","geometry":{"type":"Point","coordinates":[111.28,30.69]},"properties":{"name":"红星路 12 号民居","zone_id":"residential","zone_name":"居住社区","baidu_level1":"房地产","baidu_level2":"住宅区","area":"西陵-红星路","source":"seed"}},{"type":"Feature","geometry":{"type":"Point","coordinates":[111.274,30.689]},"properties":{"name":"献福路社区中心","zone_id":"transit_hub","zone_name":"交通枢纽","baidu_level1":"生活服务","baidu_level2":"家政服务","area":"西陵-献福路","source":"seed"}},{"type":"Feature","geometry":{"type":"Point","coordinates":[111.2725,30.6855]},"properties":{"name":"大南门老茶馆（网红）","zone_id":"general","zone_name":"通用市区","baidu_level1":"美食","baidu_level2":"茶座","area":"西陵-大南门","source":"seed"}},{"type":"Feature","geometry":{"type":"Point","coordinates":[111.272,30.685]},"properties":{"name":"大南门 5 号历史建筑","zone_id":"general","zone_name":"通用市区","baidu_level1":"旅游景点","baidu_level2":"文物古迹","area":"西陵-大南门","source":"seed"}},{"type":"Feature","geometry":{"type":"Point","coordinates":[111.296,30.696]},"properties":{"name":"滨江步道（西陵段）","zone_id":"wanda_cbd","zone_name":"万达-国贸商圈","baidu_level1":"旅游景点","baidu_level2":"景点","area":"西陵-滨江步道","source":"seed"}},{"type":"Feature","geometry":{"type":"Point","coordinates":[111.29,30.694]},"properties":{"name":"滨江夜市（西陵段）","zone_id":"wanda_cbd","zone_name":"万达-国贸商圈","baidu_level1":"美食","baidu_level2":"小吃快餐店","area":"西陵-滨江夜市","source":"seed"}},{"type":"Feature","geometry":{"type":"Point","coordinates":[111.336,30.722]},"properties":{"name":"长江沿线（伍家段）","zone_id":"riverside","zone_name":"滨江公园广场","baidu_level1":"交通设施","baidu_level2":"港口","area":"伍家-长江沿线","source":"seed"}},{"type":"Feature","geometry":{"type":"Point","coordinates":[111.245,30.6905]},"properties":{"name":"至喜长江大桥北","zone_id":"riverside","zone_name":"滨江公园广场","baidu_level1":"交通设施","baidu_level2":"桥","area":"西陵-至喜桥北","source":"seed"}},{"type":"Feature","geometry":{"type":"Point","coordinates":[111.3,30.698]},"properties":{"name":"沿江大道（西陵段）","zone_id":"wanda_cbd","zone_name":"万达-国贸商圈","baidu_level1":"道路","baidu_level2":"城市主干道","area":"西陵-沿江大道","source":"seed"}},{"type":"Feature","geometry":{"type":"Point","coordinates":[111.304,30.7]},"properties":{"name":"东山大道（西陵段）","zone_id":"wanda_cbd","zone_name":"万达-国贸商圈","baidu_level1":"道路","baidu_level2":"城市主干道","area":"西陵-东山大道","source":"seed"}},{"type":"Feature","geometry":{"type":"Point","coordinates":[111.332,30.713]},"properties":{"name":"夷陵大道（伍家段）","zone_id":"riverside","zone_name":"滨江公园广场","baidu_level1":"道路","baidu_level2":"城市主干道","area":"伍家-夷陵大道","source":"seed"}},{"type":"Feature","geometry":{"type":"Point","coordinates":[111.306,30.7]},"properties":{"name":"宜昌市消防支队","zone_id":"wanda_cbd","zone_name":"万达-国贸商圈","baidu_level1":"政府机构","baidu_level2":"公检法机构","area":"西陵-消防","source":"seed"}},{"type":"Feature","geometry":{"type":"Point","coordinates":[111.285,30.692]},"properties":{"name":"西陵区消防大队","zone_id":"riverside","zone_name":"滨江公园广场","baidu_level1":"政府机构","baidu_level2":"公检法机构","area":"西陵-消防大队","source":"seed"}},{"type":"Feature","geometry":{"type":"Point","coordinates":[111.368,30.732]},"properties":{"name":"伍家岗消防大队","zone_id":"wanda_cbd","zone_name":"万达-国贸商圈","baidu_level1":"政府机构","baidu_level2":"公检法机构","area":"伍家-消防","source":"seed"}},{"type":"Feature","geometry":{"type":"Point","coordinates":[111.294,30.694]},"properties":{"name":"西陵区城管执法大队","zone_id":"wanda_cbd","zone_name":"万达-国贸商圈","baidu_level1":"政府机构","baidu_level2":"公检法机构","area":"西陵-城管执法","source":"seed"}},{"type":"Feature","geometry":{"type":"Point","coordinates":[111.365,30.734]},"properties":{"name":"伍家岗区城管执法大队","zone_id":"wanda_cbd","zone_name":"万达-国贸商圈","baidu_level1":"政府机构","baidu_level2":"公检法机构","area":"伍家-城管执法","source":"seed"}},{"type":"Feature","geometry":{"type":"Point","coordinates":[111.284,30.691]},"properties":{"name":"环卫中心（西陵）","zone_id":"riverside","zone_name":"滨江公园广场","baidu_level1":"政府机构","baidu_level2":"行政单位","area":"西陵-环卫","source":"seed"}},{"type":"Feature","geometry":{"type":"Point","coordinates":[111.292,30.693]},"properties":{"name":"市政设施维护中心","zone_id":"wanda_cbd","zone_name":"万达-国贸商圈","baidu_level1":"政府机构","baidu_level2":"行政单位","area":"西陵-市政","source":"seed"}},{"type":"Feature","geometry":{"type":"Point","coordinates":[111.291,30.691]},"properties":{"name":"防汛抗旱指挥部（西陵）","zone_id":"wanda_cbd","zone_name":"万达-国贸商圈","baidu_level1":"政府机构","baidu_level2":"行政单位","area":"西陵-防汛","source":"seed"}},{"type":"Feature","geometry":{"type":"Point","coordinates":[111.288,30.693]},"properties":{"name":"应急避难场所（滨江公园）","zone_id":"wanda_cbd","zone_name":"万达-国贸商圈","baidu_level1":"政府机构","baidu_level2":"福利机构","area":"西陵-应急","source":"seed"}},{"type":"Feature","geometry":{"type":"Point","coordinates":[111.327,30.718]},"properties":{"name":"应急避难场所（东山公园）","zone_id":"riverside","zone_name":"滨江公园广场","baidu_level1":"政府机构","baidu_level2":"福利机构","area":"伍家-应急","source":"seed"}},{"type":"Feature","geometry":{"type":"Point","coordinates":[111.412,30.748]},"properties":{"name":"宜昌高新区产业园","zone_id":"general","zone_name":"通用市区","baidu_level1":"公司企业","baidu_level2":"园区","area":"伍家-高新区","source":"seed"}},{"type":"Feature","geometry":{"type":"Point","coordinates":[111.28,30.697]},"properties":{"name":"西陵工业园","zone_id":"ermalu_oldstreet","zone_name":"二马路-解放路核心老街","baidu_level1":"公司企业","baidu_level2":"园区","area":"西陵-工业园","source":"seed"}},{"type":"Feature","geometry":{"type":"Point","coordinates":[111.295,30.699]},"properties":{"name":"兴发集团总部","zone_id":"wanda_cbd","zone_name":"万达-国贸商圈","baidu_level1":"公司企业","baidu_level2":"公司","area":"西陵-兴发","source":"seed"}},{"type":"Feature","geometry":{"type":"Point","coordinates":[111.293,30.7]},"properties":{"name":"安琪酵母总部","zone_id":"wanda_cbd","zone_name":"万达-国贸商圈","baidu_level1":"公司企业","baidu_level2":"公司","area":"西陵-安琪","source":"seed"}},{"type":"Feature","geometry":{"type":"Point","coordinates":[111.287,30.695]},"properties":{"name":"宜昌传媒中心","zone_id":"riverside","zone_name":"滨江公园广场","baidu_level1":"文化传媒","baidu_level2":"新闻出版","area":"西陵-传媒","source":"seed"}},{"type":"Feature","geometry":{"type":"Point","coordinates":[111.29,30.698]},"properties":{"name":"三峡广电中心","zone_id":"wanda_cbd","zone_name":"万达-国贸商圈","baidu_level1":"文化传媒","baidu_level2":"广播电视","area":"西陵-广电","source":"seed"}},{"type":"Feature","geometry":{"type":"Point","coordinates":[111.298,30.698]},"properties":{"name":"中国移动（西陵营业厅）","zone_id":"wanda_cbd","zone_name":"万达-国贸商圈","baidu_level1":"生活服务","baidu_level2":"通讯营业厅","area":"西陵-移动","source":"seed"}},{"type":"Feature","geometry":{"type":"Point","coordinates":[111.311,30.702]},"properties":{"name":"中国联通（CBD）","zone_id":"wanda_cbd","zone_name":"万达-国贸商圈","baidu_level1":"生活服务","baidu_level2":"通讯营业厅","area":"西陵-联通","source":"seed"}},{"type":"Feature","geometry":{"type":"Point","coordinates":[111.364,30.728]},"properties":{"name":"中国电信（伍家）","zone_id":"wanda_cbd","zone_name":"万达-国贸商圈","baidu_level1":"生活服务","baidu_level2":"通讯营业厅","area":"伍家-电信","source":"seed"}},{"type":"Feature","geometry":{"type":"Point","coordinates":[111.29,30.692]},"properties":{"name":"西陵区邮政支局","zone_id":"wanda_cbd","zone_name":"万达-国贸商圈","baidu_level1":"生活服务","baidu_level2":"邮局","area":"西陵-邮政","source":"seed"}},{"type":"Feature","geometry":{"type":"Point","coordinates":[111.312,30.702]},"properties":{"name":"顺丰快递（CBD）","zone_id":"wanda_cbd","zone_name":"万达-国贸商圈","baidu_level1":"生活服务","baidu_level2":"物流公司","area":"西陵-顺丰","source":"seed"}},{"type":"Feature","geometry":{"type":"Point","coordinates":[111.374,30.733]},"properties":{"name":"京东物流（伍家）","zone_id":"general","zone_name":"通用市区","baidu_level1":"生活服务","baidu_level2":"物流公司","area":"伍家-京东","source":"seed"}},{"type":"Feature","geometry":{"type":"Point","coordinates":[111.3,30.698]},"properties":{"name":"美团外卖站（西陵）","zone_id":"wanda_cbd","zone_name":"万达-国贸商圈","baidu_level1":"生活服务","baidu_level2":"其他","area":"西陵-美团","source":"seed"}},{"type":"Feature","geometry":{"type":"Point","coordinates":[111.37,30.728]},"properties":{"name":"饿了么外卖站（伍家）","zone_id":"wanda_cbd","zone_name":"万达-国贸商圈","baidu_level1":"生活服务","baidu_level2":"其他","area":"伍家-饿了么","source":"seed"}},{"type":"Feature","geometry":{"type":"Point","coordinates":[111.3406305375157,30.742902628976967]},"properties":{"name":"春霖酒店(宜昌三峡企业总部基地夷陵万达广场店)","zone_id":"general","zone_name":"通用市区","baidu_level1":"餐饮服务","baidu_level2":"住宿服务相关","area":"宜昌","source":"amap"}},{"type":"Feature","geometry":{"type":"Point","coordinates":[111.31850796652026,30.691333867725806]},"properties":{"name":"砂锅家族(西江康城店)","zone_id":"general","zone_name":"通用市区","baidu_level1":"餐饮服务","baidu_level2":"快餐厅","area":"宜昌","source":"amap"}},{"type":"Feature","geometry":{"type":"Point","coordinates":[111.34067470283966,30.73961121661135]},"properties":{"name":"宜洋大酒店","zone_id":"general","zone_name":"通用市区","baidu_level1":"餐饮服务","baidu_level2":"宾馆酒店","area":"宜昌","source":"amap"}},{"type":"Feature","geometry":{"type":"Point","coordinates":[111.35591205032622,30.652371896296188]},"properties":{"name":"土灶柴火鸡(桔城小区店)","zone_id":"general","zone_name":"通用市区","baidu_level1":"餐饮服务","baidu_level2":"餐饮相关","area":"宜昌","source":"amap"}},{"type":"Feature","geometry":{"type":"Point","coordinates":[111.27368628995296,30.708373052573222]},"properties":{"name":"云南砂锅米线(北门店)","zone_id":"general","zone_name":"通用市区","baidu_level1":"餐饮服务","baidu_level2":"云贵菜","area":"宜昌","source":"amap"}},{"type":"Feature","geometry":{"type":"Point","coordinates":[111.31215345732937,30.730063827985465]},"properties":{"name":"SOGO小吃城(三峡大学店)","zone_id":"general","zone_name":"通用市区","baidu_level1":"餐饮服务","baidu_level2":"中餐厅","area":"宜昌","source":"amap"}},{"type":"Feature","geometry":{"type":"Point","coordinates":[111.27315618224031,30.70866837216942]},"properties":{"name":"重庆菜馆(北门外正街店)","zone_id":"general","zone_name":"通用市区","baidu_level1":"餐饮服务","baidu_level2":"四川菜(川菜)","area":"宜昌","source":"amap"}},{"type":"Feature","geometry":{"type":"Point","coordinates":[111.32451013698788,30.676385429453518]},"properties":{"name":"良粮味社","zone_id":"general","zone_name":"通用市区","baidu_level1":"餐饮服务","baidu_level2":"中餐厅","area":"宜昌","source":"amap"}},{"type":"Feature","geometry":{"type":"Point","coordinates":[111.30231787372334,30.7314053099148]},"properties":{"name":"釜山港韩国料理(西苑小吃街店)","zone_id":"general","zone_name":"通用市区","baidu_level1":"餐饮服务","baidu_level2":"韩国料理","area":"宜昌","source":"amap"}},{"type":"Feature","geometry":{"type":"Point","coordinates":[111.31445386823121,30.67433729112322]},"properties":{"name":"汽渡红油面","zone_id":"general","zone_name":"通用市区","baidu_level1":"餐饮服务","baidu_level2":"中餐厅","area":"宜昌","source":"amap"}},{"type":"Feature","geometry":{"type":"Point","coordinates":[111.28633389851305,30.702402202396776]},"properties":{"name":"峡州宾馆","zone_id":"general","zone_name":"通用市区","baidu_level1":"餐饮服务","baidu_level2":"餐饮相关","area":"宜昌","source":"amap"}},{"type":"Feature","geometry":{"type":"Point","coordinates":[111.32754792393929,30.682224930005788]},"properties":{"name":"烤牛肉(中南路店)","zone_id":"general","zone_name":"通用市区","baidu_level1":"餐饮服务","baidu_level2":"餐饮相关","area":"宜昌","source":"amap"}},{"type":"Feature","geometry":{"type":"Point","coordinates":[111.27964689546631,30.700877813916307]},"properties":{"name":"叶厨飘香","zone_id":"general","zone_name":"通用市区","baidu_level1":"餐饮服务","baidu_level2":"中餐厅","area":"宜昌","source":"amap"}},{"type":"Feature","geometry":{"type":"Point","coordinates":[111.35622827614714,30.640869368465022]},"properties":{"name":"泄滩立福包子铺(弘洋·东郡A区店)","zone_id":"general","zone_name":"通用市区","baidu_level1":"餐饮服务","baidu_level2":"中餐厅","area":"宜昌","source":"amap"}},{"type":"Feature","geometry":{"type":"Point","coordinates":[111.29836836263229,30.692421664384444]},"properties":{"name":"川味拉面米线(北山坡店)","zone_id":"general","zone_name":"通用市区","baidu_level1":"餐饮服务","baidu_level2":"四川菜(川菜)","area":"宜昌","source":"amap"}},{"type":"Feature","geometry":{"type":"Point","coordinates":[111.28781346483325,30.69271088714589]},"properties":{"name":"华子夜宵五七油焖大虾","zone_id":"riverside","zone_name":"滨江公园广场","baidu_level1":"餐饮服务","baidu_level2":"中餐厅","area":"宜昌","source":"amap"}},{"type":"Feature","geometry":{"type":"Point","coordinates":[111.34706269625683,30.643200900796664]},"properties":{"name":"胖子宫廷牛肉火锅","zone_id":"general","zone_name":"通用市区","baidu_level1":"餐饮服务","baidu_level2":"火锅店","area":"宜昌","source":"amap"}},{"type":"Feature","geometry":{"type":"Point","coordinates":[111.29433860005993,30.689079421707863]},"properties":{"name":"聚翁幸福家宴","zone_id":"general","zone_name":"通用市区","baidu_level1":"餐饮服务","baidu_level2":"餐饮相关","area":"宜昌","source":"amap"}},{"type":"Feature","geometry":{"type":"Point","coordinates":[111.32471275382079,30.674113081893637]},"properties":{"name":"牛郎山","zone_id":"general","zone_name":"通用市区","baidu_level1":"餐饮服务","baidu_level2":"中餐厅","area":"宜昌","source":"amap"}},{"type":"Feature","geometry":{"type":"Point","coordinates":[111.39523271319466,30.64796535175069]},"properties":{"name":"又一村(正宗郭场火锅鸡店)","zone_id":"general","zone_name":"通用市区","baidu_level1":"餐饮服务","baidu_level2":"火锅店","area":"宜昌","source":"amap"}},{"type":"Feature","geometry":{"type":"Point","coordinates":[111.27917998132463,30.698836286994926]},"properties":{"name":"把把烧(恒大步行街店)","zone_id":"ermalu_oldstreet","zone_name":"二马路-解放路核心老街","baidu_level1":"餐饮服务","baidu_level2":"中餐厅","area":"宜昌","source":"amap"}},{"type":"Feature","geometry":{"type":"Point","coordinates":[111.31225019585473,30.729983692315564]},"properties":{"name":"土耳其烤肉(三峡大学店)","zone_id":"general","zone_name":"通用市区","baidu_level1":"餐饮服务","baidu_level2":"快餐厅","area":"宜昌","source":"amap"}},{"type":"Feature","geometry":{"type":"Point","coordinates":[111.32501965030417,30.66517454236908]},"properties":{"name":"南亚茶馆(伍家岗店)","zone_id":"general","zone_name":"通用市区","baidu_level1":"餐饮服务","baidu_level2":"茶艺馆","area":"宜昌","source":"amap"}},{"type":"Feature","geometry":{"type":"Point","coordinates":[111.30784466725885,30.67927593290551]},"properties":{"name":"松滋杜婆鸡(港窑路店)","zone_id":"general","zone_name":"通用市区","baidu_level1":"餐饮服务","baidu_level2":"中餐厅","area":"宜昌","source":"amap"}},{"type":"Feature","geometry":{"type":"Point","coordinates":[111.3190591743731,30.67087328696742]},"properties":{"name":"专业包面","zone_id":"general","zone_name":"通用市区","baidu_level1":"餐饮服务","baidu_level2":"餐饮相关","area":"宜昌","source":"amap"}},{"type":"Feature","geometry":{"type":"Point","coordinates":[111.32826966460381,30.684422528744577]},"properties":{"name":"松滋杜婆鸡(宜昌第二家)","zone_id":"general","zone_name":"通用市区","baidu_level1":"餐饮服务","baidu_level2":"餐饮相关","area":"宜昌","source":"amap"}},{"type":"Feature","geometry":{"type":"Point","coordinates":[111.31075211944275,30.720961876266607]},"properties":{"name":"芭锘客·鲜果茶(沁苑店)","zone_id":"general","zone_name":"通用市区","baidu_level1":"餐饮服务","baidu_level2":"冷饮店","area":"宜昌","source":"amap"}},{"type":"Feature","geometry":{"type":"Point","coordinates":[111.32371274321477,30.672662651355687]},"properties":{"name":"荆沙牛骨头(宜昌中南路总店)","zone_id":"general","zone_name":"通用市区","baidu_level1":"餐饮服务","baidu_level2":"特色/地方风味餐厅","area":"宜昌","source":"amap"}},{"type":"Feature","geometry":{"type":"Point","coordinates":[111.32479388987164,30.681388584316547]},"properties":{"name":"兰州拉面兴发广场","zone_id":"general","zone_name":"通用市区","baidu_level1":"餐饮服务","baidu_level2":"清真菜馆","area":"宜昌","source":"amap"}},{"type":"Feature","geometry":{"type":"Point","coordinates":[111.33243177806287,30.684246653335883]},"properties":{"name":"天天烧烤(宏峰上上城2期店)","zone_id":"general","zone_name":"通用市区","baidu_level1":"餐饮服务","baidu_level2":"特色/地方风味餐厅","area":"宜昌","source":"amap"}},{"type":"Feature","geometry":{"type":"Point","coordinates":[111.31705055815655,30.697506678067942]},"properties":{"name":"首尔炭烤肉","zone_id":"general","zone_name":"通用市区","baidu_level1":"餐饮服务","baidu_level2":"韩国料理","area":"宜昌","source":"amap"}},{"type":"Feature","geometry":{"type":"Point","coordinates":[111.30893758929784,30.703670528316277]},"properties":{"name":"老荆沙酒楼(深圳路店)","zone_id":"wanda_cbd","zone_name":"万达-国贸商圈","baidu_level1":"餐饮服务","baidu_level2":"综合酒楼","area":"宜昌","source":"amap"}},{"type":"Feature","geometry":{"type":"Point","coordinates":[111.33250558323533,30.684067595797796]},"properties":{"name":"朱记砂锅米线(上上城店)","zone_id":"general","zone_name":"通用市区","baidu_level1":"餐饮服务","baidu_level2":"中餐厅","area":"宜昌","source":"amap"}},{"type":"Feature","geometry":{"type":"Point","coordinates":[111.2771982577649,30.72806508520265]},"properties":{"name":"红梅夜市总店","zone_id":"general","zone_name":"通用市区","baidu_level1":"餐饮服务","baidu_level2":"中餐厅","area":"宜昌","source":"amap"}},{"type":"Feature","geometry":{"type":"Point","coordinates":[111.27612389923705,30.708783605947183]},"properties":{"name":"羊鱼锅(北门总店)","zone_id":"general","zone_name":"通用市区","baidu_level1":"餐饮服务","baidu_level2":"火锅店","area":"宜昌","source":"amap"}},{"type":"Feature","geometry":{"type":"Point","coordinates":[111.3165555615246,30.69051190592238]},"properties":{"name":"成都麻椒肥肠锅(鑫怡翠园A区店)","zone_id":"general","zone_name":"通用市区","baidu_level1":"餐饮服务","baidu_level2":"快餐厅","area":"宜昌","source":"amap"}},{"type":"Feature","geometry":{"type":"Point","coordinates":[111.30926933103044,30.730875604879976]},"properties":{"name":"新天地美食城(凝聚新天地店)","zone_id":"general","zone_name":"通用市区","baidu_level1":"餐饮服务","baidu_level2":"中餐厅","area":"宜昌","source":"amap"}},{"type":"Feature","geometry":{"type":"Point","coordinates":[111.29482140329132,30.689388555439315]},"properties":{"name":"陕西裤带面(夷陵大道店)","zone_id":"general","zone_name":"通用市区","baidu_level1":"餐饮服务","baidu_level2":"中餐厅","area":"宜昌","source":"amap"}},{"type":"Feature","geometry":{"type":"Point","coordinates":[111.35734357203198,30.64050374750013]},"properties":{"name":"水饺大王(东郡店)","zone_id":"general","zone_name":"通用市区","baidu_level1":"餐饮服务","baidu_level2":"特色/地方风味餐厅","area":"宜昌","source":"amap"}},{"type":"Feature","geometry":{"type":"Point","coordinates":[111.2729725035539,30.708599563457867]},"properties":{"name":"三三鸭头粥(北门店)","zone_id":"general","zone_name":"通用市区","baidu_level1":"餐饮服务","baidu_level2":"中餐厅","area":"宜昌","source":"amap"}},{"type":"Feature","geometry":{"type":"Point","coordinates":[111.27297775541545,30.70555003057772]},"properties":{"name":"巴东羊肉面馆(宜昌金融街店)","zone_id":"general","zone_name":"通用市区","baidu_level1":"餐饮服务","baidu_level2":"中餐厅","area":"宜昌","source":"amap"}},{"type":"Feature","geometry":{"type":"Point","coordinates":[111.31241871131913,30.73017628980103]},"properties":{"name":"三锅鲜·新派焖锅","zone_id":"general","zone_name":"通用市区","baidu_level1":"餐饮服务","baidu_level2":"中餐厅","area":"宜昌","source":"amap"}},{"type":"Feature","geometry":{"type":"Point","coordinates":[111.30300586118976,30.733875924259124]},"properties":{"name":"颐和顺","zone_id":"general","zone_name":"通用市区","baidu_level1":"餐饮服务","baidu_level2":"茶艺馆","area":"宜昌","source":"amap"}},{"type":"Feature","geometry":{"type":"Point","coordinates":[111.35911550325115,30.638131993172358]},"properties":{"name":"牧场能量(宜昌伍临路店)","zone_id":"general","zone_name":"通用市区","baidu_level1":"餐饮服务","baidu_level2":"甜品店","area":"宜昌","source":"amap"}},{"type":"Feature","geometry":{"type":"Point","coordinates":[111.40304415933771,30.6367190832869]},"properties":{"name":"畔山明月","zone_id":"general","zone_name":"通用市区","baidu_level1":"餐饮服务","baidu_level2":"中餐厅","area":"宜昌","source":"amap"}},{"type":"Feature","geometry":{"type":"Point","coordinates":[111.3137998423489,30.707331989258893]},"properties":{"name":"熊猫叮咚生日蛋糕(宜昌店)","zone_id":"general","zone_name":"通用市区","baidu_level1":"餐饮服务","baidu_level2":"冷饮店","area":"宜昌","source":"amap"}},{"type":"Feature","geometry":{"type":"Point","coordinates":[111.32912621232077,30.661396375467824]},"properties":{"name":"丑媳妇铁板烧","zone_id":"general","zone_name":"通用市区","baidu_level1":"餐饮服务","baidu_level2":"中餐厅","area":"宜昌","source":"amap"}},{"type":"Feature","geometry":{"type":"Point","coordinates":[111.29289327498682,30.69828120214067]},"properties":{"name":"窑鸡王(西陵店)","zone_id":"wanda_cbd","zone_name":"万达-国贸商圈","baidu_level1":"餐饮服务","baidu_level2":"餐饮相关","area":"宜昌","source":"amap"}},{"type":"Feature","geometry":{"type":"Point","coordinates":[111.30296809988148,30.68588923714651]},"properties":{"name":"重庆坨坨牛肉馆","zone_id":"general","zone_name":"通用市区","baidu_level1":"餐饮服务","baidu_level2":"四川菜(川菜)","area":"宜昌","source":"amap"}},{"type":"Feature","geometry":{"type":"Point","coordinates":[111.32757903316727,30.67994192557381]},"properties":{"name":"海里家里三文鱼(中南路店)","zone_id":"general","zone_name":"通用市区","baidu_level1":"餐饮服务","baidu_level2":"餐饮相关","area":"宜昌","source":"amap"}},{"type":"Feature","geometry":{"type":"Point","coordinates":[111.2904105476491,30.70463269325189]},"properties":{"name":"酸奶罐罐(宜昌西陵国贸大厦店)","zone_id":"general","zone_name":"通用市区","baidu_level1":"餐饮服务","baidu_level2":"冷饮店","area":"宜昌","source":"amap"}},{"type":"Feature","geometry":{"type":"Point","coordinates":[111.3367123127513,30.6879328132304]},"properties":{"name":"奥田集成灶(松林路店)","zone_id":"general","zone_name":"通用市区","baidu_level1":"餐饮服务","baidu_level2":"餐饮相关","area":"宜昌","source":"amap"}},{"type":"Feature","geometry":{"type":"Point","coordinates":[111.31206071720628,30.730033011698517]},"properties":{"name":"吾饮良品(湖北宜昌三峡大学SOGO广场)","zone_id":"general","zone_name":"通用市区","baidu_level1":"餐饮服务","baidu_level2":"冷饮店","area":"宜昌","source":"amap"}},{"type":"Feature","geometry":{"type":"Point","coordinates":[111.30300237116329,30.68169912543915]},"properties":{"name":"宜昌富力皇冠假日酒店","zone_id":"general","zone_name":"通用市区","baidu_level1":"餐饮服务","baidu_level2":"餐饮相关","area":"宜昌","source":"amap"}},{"type":"Feature","geometry":{"type":"Point","coordinates":[111.28488932715752,30.69881872948995]},"properties":{"name":"康庄茶楼(隆康路店)","zone_id":"general","zone_name":"通用市区","baidu_level1":"餐饮服务","baidu_level2":"茶艺馆","area":"宜昌","source":"amap"}},{"type":"Feature","geometry":{"type":"Point","coordinates":[111.30915869234167,30.683916465750357]},"properties":{"name":"老蔡甲鱼馆(港窑路中心店)","zone_id":"general","zone_name":"通用市区","baidu_level1":"餐饮服务","baidu_level2":"海鲜酒楼","area":"宜昌","source":"amap"}},{"type":"Feature","geometry":{"type":"Point","coordinates":[111.28240074000777,30.69653080104691]},"properties":{"name":"阿杜菜馆","zone_id":"ermalu_oldstreet","zone_name":"二马路-解放路核心老街","baidu_level1":"餐饮服务","baidu_level2":"中餐厅","area":"宜昌","source":"amap"}},{"type":"Feature","geometry":{"type":"Point","coordinates":[111.3420420266409,30.738357327659322]},"properties":{"name":"石板新寨","zone_id":"general","zone_name":"通用市区","baidu_level1":"餐饮服务","baidu_level2":"餐饮相关","area":"宜昌","source":"amap"}},{"type":"Feature","geometry":{"type":"Point","coordinates":[111.28569500212465,30.7173767547585]},"properties":{"name":"海海酒家(团结新苑小区店)","zone_id":"general","zone_name":"通用市区","baidu_level1":"餐饮服务","baidu_level2":"中餐厅","area":"宜昌","source":"amap"}},{"type":"Feature","geometry":{"type":"Point","coordinates":[111.35807298092185,30.638449476757728]},"properties":{"name":"荣华家常菜馆(东郡店)","zone_id":"general","zone_name":"通用市区","baidu_level1":"餐饮服务","baidu_level2":"综合酒楼","area":"宜昌","source":"amap"}},{"type":"Feature","geometry":{"type":"Point","coordinates":[111.28047166429499,30.696245120689255]},"properties":{"name":"花果牛魔王高品质烤牛肉","zone_id":"ermalu_oldstreet","zone_name":"二马路-解放路核心老街","baidu_level1":"餐饮服务","baidu_level2":"特色/地方风味餐厅","area":"宜昌","source":"amap"}},{"type":"Feature","geometry":{"type":"Point","coordinates":[111.31054971677658,30.685802104925045]},"properties":{"name":"荆沙牛骨头(宜昌港窑路店)","zone_id":"general","zone_name":"通用市区","baidu_level1":"餐饮服务","baidu_level2":"中餐厅","area":"宜昌","source":"amap"}},{"type":"Feature","geometry":{"type":"Point","coordinates":[111.31340580733843,30.731981585813404]},"properties":{"name":"宜醉烧烤(学府花园店)","zone_id":"general","zone_name":"通用市区","baidu_level1":"餐饮服务","baidu_level2":"特色/地方风味餐厅","area":"宜昌","source":"amap"}},{"type":"Feature","geometry":{"type":"Point","coordinates":[111.28414420649484,30.69536828083844]},"properties":{"name":"瑜儿腊货馆","zone_id":"ermalu_oldstreet","zone_name":"二马路-解放路核心老街","baidu_level1":"餐饮服务","baidu_level2":"中餐厅","area":"宜昌","source":"amap"}},{"type":"Feature","geometry":{"type":"Point","coordinates":[111.2741384948224,30.708419628055566]},"properties":{"name":"小胡牛(北门总店)","zone_id":"general","zone_name":"通用市区","baidu_level1":"餐饮服务","baidu_level2":"特色/地方风味餐厅","area":"宜昌","source":"amap"}},{"type":"Feature","geometry":{"type":"Point","coordinates":[111.28731195397674,30.72328976948971]},"properties":{"name":"小曹甲鱼火锅(葛洲坝店)","zone_id":"general","zone_name":"通用市区","baidu_level1":"餐饮服务","baidu_level2":"海鲜酒楼","area":"宜昌","source":"amap"}},{"type":"Feature","geometry":{"type":"Point","coordinates":[111.30237890485247,30.682816647894327]},"properties":{"name":"宜昌伍家岗万达广场","zone_id":"general","zone_name":"通用市区","baidu_level1":"购物服务","baidu_level2":"购物中心","area":"宜昌","source":"amap"}},{"type":"Feature","geometry":{"type":"Point","coordinates":[111.28532361716609,30.70789583537872]},"properties":{"name":"CBD·购物中心","zone_id":"general","zone_name":"通用市区","baidu_level1":"购物服务","baidu_level2":"购物中心","area":"宜昌","source":"amap"}},{"type":"Feature","geometry":{"type":"Point","coordinates":[111.32889286112898,30.742067266367968]},"properties":{"name":"吾悦广场(宜昌店)","zone_id":"general","zone_name":"通用市区","baidu_level1":"购物服务","baidu_level2":"购物中心","area":"宜昌","source":"amap"}},{"type":"Feature","geometry":{"type":"Point","coordinates":[111.29028280222478,30.705098646432965]},"properties":{"name":"国贸大厦购物广场(国贸大厦店)","zone_id":"general","zone_name":"通用市区","baidu_level1":"购物服务","baidu_level2":"商场","area":"宜昌","source":"amap"}},{"type":"Feature","geometry":{"type":"Point","coordinates":[111.31053279057801,30.708624295628347]},"properties":{"name":"水悦城","zone_id":"general","zone_name":"通用市区","baidu_level1":"购物服务","baidu_level2":"购物中心","area":"宜昌","source":"amap"}},{"type":"Feature","geometry":{"type":"Point","coordinates":[111.32336710668034,30.679875005336424]},"properties":{"name":"宜昌环球港","zone_id":"general","zone_name":"通用市区","baidu_level1":"购物服务","baidu_level2":"购物中心","area":"宜昌","source":"amap"}},{"type":"Feature","geometry":{"type":"Point","coordinates":[111.32634970798327,30.678201079882417]},"properties":{"name":"方圆荟·长江广场","zone_id":"general","zone_name":"通用市区","baidu_level1":"购物服务","baidu_level2":"商场","area":"宜昌","source":"amap"}},{"type":"Feature","geometry":{"type":"Point","coordinates":[111.28541027330516,30.70972884009123]},"properties":{"name":"大洋百货(宜昌店)","zone_id":"general","zone_name":"通用市区","baidu_level1":"购物服务","baidu_level2":"购物中心","area":"宜昌","source":"amap"}},{"type":"Feature","geometry":{"type":"Point","coordinates":[111.35696840774042,30.65283900012265]},"properties":{"name":"福久源·新天地","zone_id":"general","zone_name":"通用市区","baidu_level1":"购物服务","baidu_level2":"普通商场","area":"宜昌","source":"amap"}},{"type":"Feature","geometry":{"type":"Point","coordinates":[111.29246455414672,30.69523226988366]},"properties":{"name":"星光天地","zone_id":"wanda_cbd","zone_name":"万达-国贸商圈","baidu_level1":"购物服务","baidu_level2":"公司","area":"宜昌","source":"amap"}},{"type":"Feature","geometry":{"type":"Point","coordinates":[111.2796470392659,30.699195616475894]},"properties":{"name":"宜昌解放路步行街","zone_id":"ermalu_oldstreet","zone_name":"二马路-解放路核心老街","baidu_level1":"购物服务","baidu_level2":"步行街","area":"宜昌","source":"amap"}},{"type":"Feature","geometry":{"type":"Point","coordinates":[111.29351709191717,30.717977770579733]},"properties":{"name":"华祥商业中心","zone_id":"general","zone_name":"通用市区","baidu_level1":"购物服务","baidu_level2":"购物中心","area":"宜昌","source":"amap"}},{"type":"Feature","geometry":{"type":"Point","coordinates":[111.31904485664637,30.69809066197247]},"properties":{"name":"金东山大市场","zone_id":"general","zone_name":"通用市区","baidu_level1":"购物服务","baidu_level2":"购物相关场所","area":"宜昌","source":"amap"}},{"type":"Feature","geometry":{"type":"Point","coordinates":[111.35582443181383,30.650495857959324]},"properties":{"name":"国贸·新天地","zone_id":"general","zone_name":"通用市区","baidu_level1":"购物服务","baidu_level2":"普通商场","area":"宜昌","source":"amap"}},{"type":"Feature","geometry":{"type":"Point","coordinates":[111.2803699077733,30.695762461503143]},"properties":{"name":"二马路历史文化街区","zone_id":"ermalu_oldstreet","zone_name":"二马路-解放路核心老街","baidu_level1":"购物服务","baidu_level2":"特色商业街","area":"宜昌","source":"amap"}},{"type":"Feature","geometry":{"type":"Point","coordinates":[111.31136561867015,30.70718549157807]},"properties":{"name":"雅斯广场","zone_id":"general","zone_name":"通用市区","baidu_level1":"购物服务","baidu_level2":"购物中心","area":"宜昌","source":"amap"}},{"type":"Feature","geometry":{"type":"Point","coordinates":[111.30442668204918,30.680959064852956]},"properties":{"name":"宜昌国际广场","zone_id":"general","zone_name":"通用市区","baidu_level1":"购物服务","baidu_level2":"购物中心","area":"宜昌","source":"amap"}},{"type":"Feature","geometry":{"type":"Point","coordinates":[111.28611900346591,30.706639439704297]},"properties":{"name":"商业城步行街(CBD购物中心店)","zone_id":"general","zone_name":"通用市区","baidu_level1":"购物服务","baidu_level2":"步行街","area":"宜昌","source":"amap"}},{"type":"Feature","geometry":{"type":"Point","coordinates":[111.27831866862074,30.698519340542518]},"properties":{"name":"恒大步行街","zone_id":"ermalu_oldstreet","zone_name":"二马路-解放路核心老街","baidu_level1":"购物服务","baidu_level2":"步行街","area":"宜昌","source":"amap"}},{"type":"Feature","geometry":{"type":"Point","coordinates":[111.28850071674817,30.706786260866565]},"properties":{"name":"T68创想城","zone_id":"general","zone_name":"通用市区","baidu_level1":"购物服务","baidu_level2":"普通商场","area":"宜昌","source":"amap"}},{"type":"Feature","geometry":{"type":"Point","coordinates":[111.31212752924614,30.730063875031746]},"properties":{"name":"三峡大学Sogo生活广场","zone_id":"general","zone_name":"通用市区","baidu_level1":"购物服务","baidu_level2":"购物相关场所","area":"宜昌","source":"amap"}},{"type":"Feature","geometry":{"type":"Point","coordinates":[111.32069570661378,30.703294060112373]},"properties":{"name":"金东山家居建材广场","zone_id":"general","zone_name":"通用市区","baidu_level1":"购物服务","baidu_level2":"家具建材综合市场","area":"宜昌","source":"amap"}},{"type":"Feature","geometry":{"type":"Point","coordinates":[111.33580596691044,30.698318624487644]},"properties":{"name":"湖北省宜昌市般果集采平台三峡果蔬交易中心","zone_id":"general","zone_name":"通用市区","baidu_level1":"购物服务","baidu_level2":"果品市场","area":"宜昌","source":"amap"}},{"type":"Feature","geometry":{"type":"Point","coordinates":[111.3219523410815,30.700744897717385]},"properties":{"name":"金东山商业城","zone_id":"general","zone_name":"通用市区","baidu_level1":"购物服务","baidu_level2":"综合市场","area":"宜昌","source":"amap"}},{"type":"Feature","geometry":{"type":"Point","coordinates":[111.30942787852379,30.73109421358914]},"properties":{"name":"凝聚新天地","zone_id":"general","zone_name":"通用市区","baidu_level1":"购物服务","baidu_level2":"购物中心","area":"宜昌","source":"amap"}},{"type":"Feature","geometry":{"type":"Point","coordinates":[111.27955612513416,30.700271201217387]},"properties":{"name":"时代购物广场","zone_id":"general","zone_name":"通用市区","baidu_level1":"购物服务","baidu_level2":"购物中心","area":"宜昌","source":"amap"}},{"type":"Feature","geometry":{"type":"Point","coordinates":[111.30224861241777,30.736523854510715]},"properties":{"name":"夜明珠建材市场","zone_id":"general","zone_name":"通用市区","baidu_level1":"购物服务","baidu_level2":"建材五金市场","area":"宜昌","source":"amap"}},{"type":"Feature","geometry":{"type":"Point","coordinates":[111.34060071602367,30.673149367356707]},"properties":{"name":"天悦广场","zone_id":"general","zone_name":"通用市区","baidu_level1":"购物服务","baidu_level2":"购物中心","area":"宜昌","source":"amap"}},{"type":"Feature","geometry":{"type":"Point","coordinates":[111.32771017713307,30.74292509456896]},"properties":{"name":"宜昌吾悦广场(锦江大道店)-西区","zone_id":"general","zone_name":"通用市区","baidu_level1":"购物服务","baidu_level2":"购物中心","area":"宜昌","source":"amap"}},{"type":"Feature","geometry":{"type":"Point","coordinates":[111.3335566524617,30.729237816907467]},"properties":{"name":"居然之家(宜昌店)","zone_id":"general","zone_name":"通用市区","baidu_level1":"购物服务","baidu_level2":"家具建材综合市场","area":"宜昌","source":"amap"}},{"type":"Feature","geometry":{"type":"Point","coordinates":[111.35484411883321,30.647705665146198]},"properties":{"name":"盛景广场","zone_id":"general","zone_name":"通用市区","baidu_level1":"购物服务","baidu_level2":"普通商场","area":"宜昌","source":"amap"}},{"type":"Feature","geometry":{"type":"Point","coordinates":[111.3305541057374,30.730572879010662]},"properties":{"name":"易中建材家装大世界","zone_id":"general","zone_name":"通用市区","baidu_level1":"购物服务","baidu_level2":"建材五金市场","area":"宜昌","source":"amap"}},{"type":"Feature","geometry":{"type":"Point","coordinates":[111.30993059441727,30.70689520933791]},"properties":{"name":"康龙国际广场","zone_id":"transit_hub","zone_name":"交通枢纽","baidu_level1":"购物服务","baidu_level2":"商场","area":"宜昌","source":"amap"}},{"type":"Feature","geometry":{"type":"Point","coordinates":[111.28516221870282,30.716580811570044]},"properties":{"name":"东湖海鲜市场(东湖社区卫生服务中心西南)","zone_id":"general","zone_name":"通用市区","baidu_level1":"购物服务","baidu_level2":"蔬菜市场","area":"宜昌","source":"amap"}},{"type":"Feature","geometry":{"type":"Point","coordinates":[111.29322848676073,30.72141250348992]},"properties":{"name":"时光里(常刘路店)","zone_id":"general","zone_name":"通用市区","baidu_level1":"购物服务","baidu_level2":"普通商场","area":"宜昌","source":"amap"}},{"type":"Feature","geometry":{"type":"Point","coordinates":[111.2833310767207,30.705129598691293]},"properties":{"name":"丽人世界商场","zone_id":"general","zone_name":"通用市区","baidu_level1":"购物服务","baidu_level2":"服装鞋帽皮具店","area":"宜昌","source":"amap"}},{"type":"Feature","geometry":{"type":"Point","coordinates":[111.37876917057451,30.62570032856394]},"properties":{"name":"共联商贸大市场","zone_id":"general","zone_name":"通用市区","baidu_level1":"购物服务","baidu_level2":"综合市场","area":"宜昌","source":"amap"}},{"type":"Feature","geometry":{"type":"Point","coordinates":[111.37981303796681,30.67563855927473]},"properties":{"name":"宜昌喜盈门家居公园","zone_id":"general","zone_name":"通用市区","baidu_level1":"购物服务","baidu_level2":"家居建材市场","area":"宜昌","source":"amap"}},{"type":"Feature","geometry":{"type":"Point","coordinates":[111.36059548879224,30.632561096422148]},"properties":{"name":"金都建材家居广场","zone_id":"general","zone_name":"通用市区","baidu_level1":"购物服务","baidu_level2":"家具城","area":"宜昌","source":"amap"}},{"type":"Feature","geometry":{"type":"Point","coordinates":[111.32323044764992,30.680451999465046]},"properties":{"name":"沃尔玛(宜昌环球港店)","zone_id":"general","zone_name":"通用市区","baidu_level1":"购物服务","baidu_level2":"沃尔玛","area":"宜昌","source":"amap"}},{"type":"Feature","geometry":{"type":"Point","coordinates":[111.28722862292662,30.69435087959851]},"properties":{"name":"隆康电信城(隆康路营业厅)","zone_id":"riverside","zone_name":"滨江公园广场","baidu_level1":"购物服务","baidu_level2":"手机销售","area":"宜昌","source":"amap"}},{"type":"Feature","geometry":{"type":"Point","coordinates":[111.31974203780052,30.696206243160006]},"properties":{"name":"三峡文化城","zone_id":"general","zone_name":"通用市区","baidu_level1":"购物服务","baidu_level2":"综合市场","area":"宜昌","source":"amap"}},{"type":"Feature","geometry":{"type":"Point","coordinates":[111.28391599833046,30.726720336147363]},"properties":{"name":"葛洲坝中心菜市场","zone_id":"general","zone_name":"通用市区","baidu_level1":"购物服务","baidu_level2":"手机销售","area":"宜昌","source":"amap"}},{"type":"Feature","geometry":{"type":"Point","coordinates":[111.28617287661818,30.70675031769261]},"properties":{"name":"CBD·中央大街","zone_id":"general","zone_name":"通用市区","baidu_level1":"购物服务","baidu_level2":"特色商业街","area":"宜昌","source":"amap"}},{"type":"Feature","geometry":{"type":"Point","coordinates":[111.28585942219085,30.708332950983703]},"properties":{"name":"沃尔玛(CBD购物中心店)","zone_id":"general","zone_name":"通用市区","baidu_level1":"购物服务","baidu_level2":"沃尔玛","area":"宜昌","source":"amap"}},{"type":"Feature","geometry":{"type":"Point","coordinates":[111.29143646422617,30.701144926204297]},"properties":{"name":"合美通讯广场(果园一路)","zone_id":"general","zone_name":"通用市区","baidu_level1":"购物服务","baidu_level2":"手机销售","area":"宜昌","source":"amap"}},{"type":"Feature","geometry":{"type":"Point","coordinates":[111.3852985985287,30.665794559545876]},"properties":{"name":"三峡物流园-水产市场","zone_id":"general","zone_name":"通用市区","baidu_level1":"购物服务","baidu_level2":"水产海鲜市场","area":"宜昌","source":"amap"}},{"type":"Feature","geometry":{"type":"Point","coordinates":[111.32510709978772,30.680152556901792]},"properties":{"name":"永辉超市(湖北宜昌市宜昌兴发广场店)","zone_id":"general","zone_name":"通用市区","baidu_level1":"购物服务","baidu_level2":"超市","area":"宜昌","source":"amap"}},{"type":"Feature","geometry":{"type":"Point","coordinates":[111.3608230982134,30.63093743627115]},"properties":{"name":"金都建材城","zone_id":"general","zone_name":"通用市区","baidu_level1":"购物服务","baidu_level2":"建材五金市场","area":"宜昌","source":"amap"}},{"type":"Feature","geometry":{"type":"Point","coordinates":[111.3019859582261,30.740440310806747]},"properties":{"name":"宜昌市夜明珠钢材货场","zone_id":"general","zone_name":"通用市区","baidu_level1":"购物服务","baidu_level2":"建材五金市场","area":"宜昌","source":"amap"}},{"type":"Feature","geometry":{"type":"Point","coordinates":[111.30051549593891,30.731915016937318]},"properties":{"name":"大明菜市场","zone_id":"general","zone_name":"通用市区","baidu_level1":"购物服务","baidu_level2":"蔬菜市场","area":"宜昌","source":"amap"}},{"type":"Feature","geometry":{"type":"Point","coordinates":[111.37866609432704,30.67391941850931]},"properties":{"name":"雅斯超市(喜盈门店)","zone_id":"general","zone_name":"通用市区","baidu_level1":"购物服务","baidu_level2":"购物相关场所","area":"宜昌","source":"amap"}},{"type":"Feature","geometry":{"type":"Point","coordinates":[111.27923219196254,30.706867381833494]},"properties":{"name":"东门综合市场(东门外正街)","zone_id":"general","zone_name":"通用市区","baidu_level1":"购物服务","baidu_level2":"综合市场","area":"宜昌","source":"amap"}},{"type":"Feature","geometry":{"type":"Point","coordinates":[111.36641533833401,30.655740791282263]},"properties":{"name":"宜亚酒店(宜昌火车东站店)","zone_id":"general","zone_name":"通用市区","baidu_level1":"购物服务","baidu_level2":"购物相关场所","area":"宜昌","source":"amap"}},{"type":"Feature","geometry":{"type":"Point","coordinates":[111.29296741730309,30.717832645192097]},"properties":{"name":"麦德龙(西陵商场店)","zone_id":"general","zone_name":"通用市区","baidu_level1":"购物服务","baidu_level2":"综合市场","area":"宜昌","source":"amap"}},{"type":"Feature","geometry":{"type":"Point","coordinates":[111.27808059560094,30.70467664029316]},"properties":{"name":"万悦健康城","zone_id":"general","zone_name":"通用市区","baidu_level1":"购物服务","baidu_level2":"生活服务场所","area":"宜昌","source":"amap"}},{"type":"Feature","geometry":{"type":"Point","coordinates":[111.28127284531661,30.710421427037836]},"properties":{"name":"新天地数码电脑城(珍珠路)","zone_id":"general","zone_name":"通用市区","baidu_level1":"购物服务","baidu_level2":"数码电子","area":"宜昌","source":"amap"}},{"type":"Feature","geometry":{"type":"Point","coordinates":[111.36468469993912,30.62640272993576]},"properties":{"name":"泰丰陶瓷城","zone_id":"general","zone_name":"通用市区","baidu_level1":"购物服务","baidu_level2":"建材五金市场","area":"宜昌","source":"amap"}},{"type":"Feature","geometry":{"type":"Point","coordinates":[111.28152429217441,30.710946887608625]},"properties":{"name":"宜昌新华书店·屈原书城","zone_id":"general","zone_name":"通用市区","baidu_level1":"购物服务","baidu_level2":"家电电子卖场","area":"宜昌","source":"amap"}},{"type":"Feature","geometry":{"type":"Point","coordinates":[111.29279975358826,30.71855953193448]},"properties":{"name":"欧亚达家居(宜昌西陵旗舰店)","zone_id":"general","zone_name":"通用市区","baidu_level1":"购物服务","baidu_level2":"公司","area":"宜昌","source":"amap"}},{"type":"Feature","geometry":{"type":"Point","coordinates":[111.35779031459927,30.65386225199728]},"properties":{"name":"雅斯超市(香山福久源店)","zone_id":"general","zone_name":"通用市区","baidu_level1":"购物服务","baidu_level2":"超市","area":"宜昌","source":"amap"}},{"type":"Feature","geometry":{"type":"Point","coordinates":[111.32350092128853,30.700639001631796]},"properties":{"name":"金东山家具城","zone_id":"general","zone_name":"通用市区","baidu_level1":"购物服务","baidu_level2":"家居建材市场","area":"宜昌","source":"amap"}},{"type":"Feature","geometry":{"type":"Point","coordinates":[111.32786391540077,30.740868844099914]},"properties":{"name":"雅斯超市(吾悦广场店)","zone_id":"general","zone_name":"通用市区","baidu_level1":"购物服务","baidu_level2":"超市","area":"宜昌","source":"amap"}},{"type":"Feature","geometry":{"type":"Point","coordinates":[111.29256036474919,30.694796337907793]},"properties":{"name":"北山生活超市(星光天地店)","zone_id":"wanda_cbd","zone_name":"万达-国贸商圈","baidu_level1":"购物服务","baidu_level2":"便民商店/便利店","area":"宜昌","source":"amap"}},{"type":"Feature","geometry":{"type":"Point","coordinates":[111.28236507682374,30.7051227373296]},"properties":{"name":"上海三联书店(宜昌店)","zone_id":"general","zone_name":"通用市区","baidu_level1":"购物服务","baidu_level2":"书店","area":"宜昌","source":"amap"}},{"type":"Feature","geometry":{"type":"Point","coordinates":[111.2908525931201,30.70383446004846]},"properties":{"name":"国贸南楼","zone_id":"general","zone_name":"通用市区","baidu_level1":"购物服务","baidu_level2":"普通商场","area":"宜昌","source":"amap"}},{"type":"Feature","geometry":{"type":"Point","coordinates":[111.34683989300758,30.64777631941493]},"properties":{"name":"夷顺商厦","zone_id":"general","zone_name":"通用市区","baidu_level1":"购物服务","baidu_level2":"购物中心","area":"宜昌","source":"amap"}},{"type":"Feature","geometry":{"type":"Point","coordinates":[111.28590618126849,30.709958105032147]},"properties":{"name":"大洋晶典","zone_id":"general","zone_name":"通用市区","baidu_level1":"购物服务","baidu_level2":"购物相关场所","area":"宜昌","source":"amap"}},{"type":"Feature","geometry":{"type":"Point","coordinates":[111.30259709789723,30.685572004446325]},"properties":{"name":"联想客户服务中心(百应伍家江海店)","zone_id":"general","zone_name":"通用市区","baidu_level1":"购物服务","baidu_level2":"维修站点","area":"宜昌","source":"amap"}},{"type":"Feature","geometry":{"type":"Point","coordinates":[111.36640627126769,30.668100288221837]},"properties":{"name":"东风日产宜昌交运麟宏全功能中心","zone_id":"general","zone_name":"通用市区","baidu_level1":"购物服务","baidu_level2":"购物相关场所","area":"宜昌","source":"amap"}},{"type":"Feature","geometry":{"type":"Point","coordinates":[111.32830061099182,30.74146870389286]},"properties":{"name":"吾悦广场-东区","zone_id":"general","zone_name":"通用市区","baidu_level1":"购物服务","baidu_level2":"购物相关场所","area":"宜昌","source":"amap"}},{"type":"Feature","geometry":{"type":"Point","coordinates":[111.2897156187326,30.699111294883743]},"properties":{"name":"诗情花艺","zone_id":"general","zone_name":"通用市区","baidu_level1":"购物服务","baidu_level2":"花卉市场","area":"宜昌","source":"amap"}},{"type":"Feature","geometry":{"type":"Point","coordinates":[111.32380585647256,30.66828445896551]},"properties":{"name":"熊大生活购物广场","zone_id":"general","zone_name":"通用市区","baidu_level1":"购物服务","baidu_level2":"购物相关场所","area":"宜昌","source":"amap"}},{"type":"Feature","geometry":{"type":"Point","coordinates":[111.34450729355706,30.646591015225948]},"properties":{"name":"伍家菜市场","zone_id":"general","zone_name":"通用市区","baidu_level1":"购物服务","baidu_level2":"蔬菜市场","area":"宜昌","source":"amap"}},{"type":"Feature","geometry":{"type":"Point","coordinates":[111.29900801262276,30.689331101596505]},"properties":{"name":"张家店菜市场","zone_id":"general","zone_name":"通用市区","baidu_level1":"购物服务","baidu_level2":"便民商店/便利店","area":"宜昌","source":"amap"}},{"type":"Feature","geometry":{"type":"Point","coordinates":[111.33086904897111,30.732361381876085]},"properties":{"name":"林氏家居(宜昌易家居店)","zone_id":"general","zone_name":"通用市区","baidu_level1":"购物服务","baidu_level2":"家具城","area":"宜昌","source":"amap"}},{"type":"Feature","geometry":{"type":"Point","coordinates":[111.28867067042458,30.691216449972217]},"properties":{"name":"隆中路市场","zone_id":"wanda_cbd","zone_name":"万达-国贸商圈","baidu_level1":"购物服务","baidu_level2":"综合市场","area":"宜昌","source":"amap"}},{"type":"Feature","geometry":{"type":"Point","coordinates":[111.29067590713306,30.70494717245049]},"properties":{"name":"Apple授权专营店(西陵国贸店)","zone_id":"general","zone_name":"通用市区","baidu_level1":"购物服务","baidu_level2":"手机销售","area":"宜昌","source":"amap"}},{"type":"Feature","geometry":{"type":"Point","coordinates":[111.30213552240468,30.683008962707774]},"properties":{"name":"Apple授权专营店(宜昌万达店)","zone_id":"general","zone_name":"通用市区","baidu_level1":"购物服务","baidu_level2":"手机销售","area":"宜昌","source":"amap"}},{"type":"Feature","geometry":{"type":"Point","coordinates":[111.32430044708356,30.679732291206737]},"properties":{"name":"联想体验店(宜昌环球港店)","zone_id":"general","zone_name":"通用市区","baidu_level1":"购物服务","baidu_level2":"数码电子","area":"宜昌","source":"amap"}},{"type":"Feature","geometry":{"type":"Point","coordinates":[111.29899924597918,30.686878263023114]},"properties":{"name":"雅斯超市(九码头店)","zone_id":"general","zone_name":"通用市区","baidu_level1":"购物服务","baidu_level2":"超市","area":"宜昌","source":"amap"}},{"type":"Feature","geometry":{"type":"Point","coordinates":[111.32358944836982,30.68012846467264]},"properties":{"name":"Apple授权专营店(三峡环球港店)","zone_id":"general","zone_name":"通用市区","baidu_level1":"购物服务","baidu_level2":"手机销售","area":"宜昌","source":"amap"}},{"type":"Feature","geometry":{"type":"Point","coordinates":[111.29030576981805,30.704859729511636]},"properties":{"name":"国贸大厦北楼","zone_id":"general","zone_name":"通用市区","baidu_level1":"购物服务","baidu_level2":"普通商场","area":"宜昌","source":"amap"}},{"type":"Feature","geometry":{"type":"Point","coordinates":[111.28042438751157,30.70057311300199]},"properties":{"name":"朱哥甜栗专卖店(中山路店)","zone_id":"general","zone_name":"通用市区","baidu_level1":"购物服务","baidu_level2":"果品市场","area":"宜昌","source":"amap"}},{"type":"Feature","geometry":{"type":"Point","coordinates":[111.3012468062547,30.683253314769747]},"properties":{"name":"三福时尚(宜昌伍家岗万达广场店)","zone_id":"general","zone_name":"通用市区","baidu_level1":"购物服务","baidu_level2":"购物相关场所","area":"宜昌","source":"amap"}},{"type":"Feature","geometry":{"type":"Point","coordinates":[111.29217280629854,30.700318271514075]},"properties":{"name":"OPPO官方授权服务体验中心(宜昌西陵区东山大道1店)","zone_id":"general","zone_name":"通用市区","baidu_level1":"购物服务","baidu_level2":"维修站点","area":"宜昌","source":"amap"}},{"type":"Feature","geometry":{"type":"Point","coordinates":[111.34294009426654,30.65209846682442]},"properties":{"name":"北山生活超市(东辰心语店)","zone_id":"general","zone_name":"通用市区","baidu_level1":"购物服务","baidu_level2":"便民商店/便利店","area":"宜昌","source":"amap"}},{"type":"Feature","geometry":{"type":"Point","coordinates":[111.34587294012711,30.64264326034572]},"properties":{"name":"华为授权服务中心(宜昌伍家岗)","zone_id":"general","zone_name":"通用市区","baidu_level1":"购物服务","baidu_level2":"维修站点","area":"宜昌","source":"amap"}},{"type":"Feature","geometry":{"type":"Point","coordinates":[111.31376955474212,30.711630962312423]},"properties":{"name":"东山家私市场","zone_id":"general","zone_name":"通用市区","baidu_level1":"购物服务","baidu_level2":"家具城","area":"宜昌","source":"amap"}},{"type":"Feature","geometry":{"type":"Point","coordinates":[111.28661289027649,30.707036616701302]},"properties":{"name":"雅斯超市(铁路坝店)","zone_id":"general","zone_name":"通用市区","baidu_level1":"购物服务","baidu_level2":"超市","area":"宜昌","source":"amap"}},{"type":"Feature","geometry":{"type":"Point","coordinates":[111.30256043524385,30.682768368226533]},"properties":{"name":"华为授权体验店(伍家岗万达)","zone_id":"general","zone_name":"通用市区","baidu_level1":"购物服务","baidu_level2":"手机销售","area":"宜昌","source":"amap"}},{"type":"Feature","geometry":{"type":"Point","coordinates":[111.31009300878078,30.68537312312418]},"properties":{"name":"7天优品酒店(宜昌万达广场运河公园店)","zone_id":"general","zone_name":"通用市区","baidu_level1":"购物服务","baidu_level2":"宾馆酒店","area":"宜昌","source":"amap"}},{"type":"Feature","geometry":{"type":"Point","coordinates":[111.3105058949118,30.708273513547766]},"properties":{"name":"自己人(水悦城店)","zone_id":"general","zone_name":"通用市区","baidu_level1":"购物服务","baidu_level2":"购物相关场所","area":"宜昌","source":"amap"}},{"type":"Feature","geometry":{"type":"Point","coordinates":[111.29000439922916,30.70560378813995]},"properties":{"name":"DJI大疆(宜昌国贸授权体验店)","zone_id":"general","zone_name":"通用市区","baidu_level1":"购物服务","baidu_level2":"数码电子","area":"宜昌","source":"amap"}},{"type":"Feature","geometry":{"type":"Point","coordinates":[111.2856027555319,30.710923019532647]},"properties":{"name":"瑞司视光·蔡司眼镜官方授权店(宜昌CBD恒基国际)","zone_id":"general","zone_name":"通用市区","baidu_level1":"购物服务","baidu_level2":"眼镜店","area":"宜昌","source":"amap"}},{"type":"Feature","geometry":{"type":"Point","coordinates":[111.28542025728404,30.709664858602814]},"properties":{"name":"Apple授权专营店(西陵大洋百货店)","zone_id":"general","zone_name":"通用市区","baidu_level1":"购物服务","baidu_level2":"手机销售","area":"宜昌","source":"amap"}},{"type":"Feature","geometry":{"type":"Point","coordinates":[111.3835566540906,30.670735623719562]},"properties":{"name":"宜晓通旧货市场","zone_id":"general","zone_name":"通用市区","baidu_level1":"购物服务","baidu_level2":"旧货市场","area":"宜昌","source":"amap"}},{"type":"Feature","geometry":{"type":"Point","coordinates":[111.29242099152088,30.702977642297533]},"properties":{"name":"小米之家(宜昌西陵区东山大道专卖店)","zone_id":"general","zone_name":"通用市区","baidu_level1":"购物服务","baidu_level2":"维修站点","area":"宜昌","source":"amap"}},{"type":"Feature","geometry":{"type":"Point","coordinates":[111.29575908344293,30.71297886173627]},"properties":{"name":"403菜市场","zone_id":"general","zone_name":"通用市区","baidu_level1":"购物服务","baidu_level2":"蔬菜市场","area":"宜昌","source":"amap"}},{"type":"Feature","geometry":{"type":"Point","coordinates":[111.30255447389227,30.682500502286132]},"properties":{"name":"优衣库(宜昌伍家岗万达广场店)","zone_id":"general","zone_name":"通用市区","baidu_level1":"购物服务","baidu_level2":"品牌服装店","area":"宜昌","source":"amap"}},{"type":"Feature","geometry":{"type":"Point","coordinates":[111.28914186243288,30.711498116166997]},"properties":{"name":"苏宁易购(金缔华城店)","zone_id":"general","zone_name":"通用市区","baidu_level1":"购物服务","baidu_level2":"苏宁","area":"宜昌","source":"amap"}},{"type":"Feature","geometry":{"type":"Point","coordinates":[111.292896121812,30.69998438645314]},"properties":{"name":"中国移动(东山营业厅)","zone_id":"wanda_cbd","zone_name":"万达-国贸商圈","baidu_level1":"购物服务","baidu_level2":"中国移动营业厅","area":"宜昌","source":"amap"}},{"type":"Feature","geometry":{"type":"Point","coordinates":[111.28143372526962,30.70803240206989]},"properties":{"name":"机械革命授权专卖店·特约服务站(宜昌街边店)","zone_id":"general","zone_name":"通用市区","baidu_level1":"购物服务","baidu_level2":"数码电子","area":"宜昌","source":"amap"}},{"type":"Feature","geometry":{"type":"Point","coordinates":[111.28141075225784,30.70825931838276]},"properties":{"name":"联想体验店联想百应(联想专卖店超文店)","zone_id":"general","zone_name":"通用市区","baidu_level1":"购物服务","baidu_level2":"数码电子","area":"宜昌","source":"amap"}},{"type":"Feature","geometry":{"type":"Point","coordinates":[111.28590438614596,30.707616240483013]},"properties":{"name":"名创优品(CBD·购物中心店)","zone_id":"general","zone_name":"通用市区","baidu_level1":"购物服务","baidu_level2":"购物相关场所","area":"宜昌","source":"amap"}},{"type":"Feature","geometry":{"type":"Point","coordinates":[111.2795507590051,30.70466810060802]},"properties":{"name":"自己人宜昌菜肖家巷总店","zone_id":"general","zone_name":"通用市区","baidu_level1":"购物服务","baidu_level2":"服装鞋帽皮具店","area":"宜昌","source":"amap"}},{"type":"Feature","geometry":{"type":"Point","coordinates":[111.30633502173319,30.71075267152556]},"properties":{"name":"北山生活超市(东山店)","zone_id":"general","zone_name":"通用市区","baidu_level1":"购物服务","baidu_level2":"超市","area":"宜昌","source":"amap"}},{"type":"Feature","geometry":{"type":"Point","coordinates":[111.37101687143897,30.654748327982425]},"properties":{"name":"川粤家居工厂直营店","zone_id":"general","zone_name":"通用市区","baidu_level1":"购物服务","baidu_level2":"家居建材市场","area":"宜昌","source":"amap"}},{"type":"Feature","geometry":{"type":"Point","coordinates":[111.36787196735105,30.670116428092513]},"properties":{"name":"宜昌曼物生活·家居工场","zone_id":"general","zone_name":"通用市区","baidu_level1":"购物服务","baidu_level2":"购物相关场所","area":"宜昌","source":"amap"}},{"type":"Feature","geometry":{"type":"Point","coordinates":[111.28210359487882,30.70532994009122]},"properties":{"name":"联想专卖店(宜昌市珍珠路店)","zone_id":"general","zone_name":"通用市区","baidu_level1":"购物服务","baidu_level2":"数码电子","area":"宜昌","source":"amap"}},{"type":"Feature","geometry":{"type":"Point","coordinates":[111.3218774409727,30.702059411282608]},"properties":{"name":"立邦官方(宜昌金东山店)","zone_id":"general","zone_name":"通用市区","baidu_level1":"购物服务","baidu_level2":"建材五金市场","area":"宜昌","source":"amap"}},{"type":"Feature","geometry":{"type":"Point","coordinates":[111.29277439342971,30.700190464792303]},"properties":{"name":"联想专卖店(宜昌云集路店)","zone_id":"wanda_cbd","zone_name":"万达-国贸商圈","baidu_level1":"购物服务","baidu_level2":"数码电子","area":"宜昌","source":"amap"}},{"type":"Feature","geometry":{"type":"Point","coordinates":[111.32009132540877,30.7160100415603]},"properties":{"name":"鸿蒙智行用户中心(享界|智界)·宜昌发展大道","zone_id":"riverside","zone_name":"滨江公园广场","baidu_level1":"购物服务","baidu_level2":"购物相关场所","area":"宜昌","source":"amap"}},{"type":"Feature","geometry":{"type":"Point","coordinates":[111.29152084049625,30.7061064253457]},"properties":{"name":"华灯初上·庭院餐厅","zone_id":"general","zone_name":"通用市区","baidu_level1":"购物服务","baidu_level2":"餐饮相关","area":"宜昌","source":"amap"}},{"type":"Feature","geometry":{"type":"Point","coordinates":[111.30386404541028,30.682396353456284]},"properties":{"name":"DJI大疆售点(宜昌万达店)","zone_id":"general","zone_name":"通用市区","baidu_level1":"购物服务","baidu_level2":"专营店","area":"宜昌","source":"amap"}},{"type":"Feature","geometry":{"type":"Point","coordinates":[111.31367898367367,30.70959811489259]},"properties":{"name":"全友家居(西陵旗舰店)","zone_id":"general","zone_name":"通用市区","baidu_level1":"购物服务","baidu_level2":"家具城","area":"宜昌","source":"amap"}},{"type":"Feature","geometry":{"type":"Point","coordinates":[111.3014422711705,30.683596834386233]},"properties":{"name":"OPPO官方授权体验店(宜昌伍家岗区万达广场店)","zone_id":"general","zone_name":"通用市区","baidu_level1":"购物服务","baidu_level2":"手机销售","area":"宜昌","source":"amap"}},{"type":"Feature","geometry":{"type":"Point","coordinates":[111.37972021523038,30.675352775182315]},"properties":{"name":"宜昌喜盈门家居公园家居生活馆A馆","zone_id":"general","zone_name":"通用市区","baidu_level1":"购物服务","baidu_level2":"旅游景点","area":"宜昌","source":"amap"}},{"type":"Feature","geometry":{"type":"Point","coordinates":[111.33384675998106,30.730006881220106]},"properties":{"name":"顾家家居(居然旗舰店)","zone_id":"general","zone_name":"通用市区","baidu_level1":"购物服务","baidu_level2":"家具城","area":"宜昌","source":"amap"}},{"type":"Feature","geometry":{"type":"Point","coordinates":[111.34902659139696,30.64192899435822]},"properties":{"name":"北山生活超市(中建之星二店)","zone_id":"general","zone_name":"通用市区","baidu_level1":"购物服务","baidu_level2":"购物相关场所","area":"宜昌","source":"amap"}},{"type":"Feature","geometry":{"type":"Point","coordinates":[111.29048603123472,30.696974247344492]},"properties":{"name":"超视立远近一体镜专业定制中心(宜昌店)","zone_id":"wanda_cbd","zone_name":"万达-国贸商圈","baidu_level1":"购物服务","baidu_level2":"眼镜店","area":"宜昌","source":"amap"}},{"type":"Feature","geometry":{"type":"Point","coordinates":[111.31463668685294,30.693632991881397]},"properties":{"name":"鑫怡广场","zone_id":"general","zone_name":"通用市区","baidu_level1":"购物服务","baidu_level2":"购物相关场所","area":"宜昌","source":"amap"}},{"type":"Feature","geometry":{"type":"Point","coordinates":[111.28145068438057,30.708109345674522]},"properties":{"name":"联想授权体验店(珍珠路57号店)","zone_id":"general","zone_name":"通用市区","baidu_level1":"购物服务","baidu_level2":"数码电子","area":"宜昌","source":"amap"}},{"type":"Feature","geometry":{"type":"Point","coordinates":[111.34968280903274,30.642576576467263]},"properties":{"name":"新华书店(中建·宜昌之星店)","zone_id":"general","zone_name":"通用市区","baidu_level1":"购物服务","baidu_level2":"书店","area":"宜昌","source":"amap"}},{"type":"Feature","geometry":{"type":"Point","coordinates":[111.3249835412641,30.67914525732869]},"properties":{"name":"华为智能生活馆•宜昌环球港","zone_id":"general","zone_name":"通用市区","baidu_level1":"购物服务","baidu_level2":"数码电子","area":"宜昌","source":"amap"}},{"type":"Feature","geometry":{"type":"Point","coordinates":[111.28616746590376,30.711672941055284]},"properties":{"name":"林氏家居(宜昌CBD店)","zone_id":"general","zone_name":"通用市区","baidu_level1":"购物服务","baidu_level2":"购物相关场所","area":"宜昌","source":"amap"}},{"type":"Feature","geometry":{"type":"Point","coordinates":[111.27793988064373,30.704471882846423]},"properties":{"name":"北山生活超市(东门店)","zone_id":"general","zone_name":"通用市区","baidu_level1":"购物服务","baidu_level2":"便民商店/便利店","area":"宜昌","source":"amap"}},{"type":"Feature","geometry":{"type":"Point","coordinates":[111.29043645281419,30.705040461165186]},"properties":{"name":"One Moment(宜昌国贸店)","zone_id":"general","zone_name":"通用市区","baidu_level1":"购物服务","baidu_level2":"品牌服装店","area":"宜昌","source":"amap"}},{"type":"Feature","geometry":{"type":"Point","coordinates":[111.28076991366845,30.709737321748495]},"properties":{"name":"联想体验店(宜昌蓝之星智生活店)","zone_id":"general","zone_name":"通用市区","baidu_level1":"购物服务","baidu_level2":"数码电子","area":"宜昌","source":"amap"}},{"type":"Feature","geometry":{"type":"Point","coordinates":[111.35591815047668,30.65105646194296]},"properties":{"name":"华为授权体验店(国贸新天地)","zone_id":"general","zone_name":"通用市区","baidu_level1":"购物服务","baidu_level2":"手机销售","area":"宜昌","source":"amap"}},{"type":"Feature","geometry":{"type":"Point","coordinates":[111.38245188883015,30.66413048343818]},"properties":{"name":"三峡物流园","zone_id":"general","zone_name":"通用市区","baidu_level1":"生活服务","baidu_level2":"物流仓储场地","area":"宜昌","source":"amap"}},{"type":"Feature","geometry":{"type":"Point","coordinates":[111.29971076979785,30.68301692004511]},"properties":{"name":"三峡游客中心","zone_id":"general","zone_name":"通用市区","baidu_level1":"生活服务","baidu_level2":"生活服务场所","area":"宜昌","source":"amap"}},{"type":"Feature","geometry":{"type":"Point","coordinates":[111.36755773742347,30.668910386429527]},"properties":{"name":"天元国际汽车物流城","zone_id":"general","zone_name":"通用市区","baidu_level1":"生活服务","baidu_level2":"汽车销售","area":"宜昌","source":"amap"}},{"type":"Feature","geometry":{"type":"Point","coordinates":[111.30803574272858,30.75339535213567]},"properties":{"name":"三峡大坝旅游区三角地接待站","zone_id":"general","zone_name":"通用市区","baidu_level1":"生活服务","baidu_level2":"生活服务场所","area":"宜昌","source":"amap"}},{"type":"Feature","geometry":{"type":"Point","coordinates":[111.33633444636227,30.652727481608334]},"properties":{"name":"江畔大地","zone_id":"general","zone_name":"通用市区","baidu_level1":"生活服务","baidu_level2":"生活服务场所","area":"宜昌","source":"amap"}},{"type":"Feature","geometry":{"type":"Point","coordinates":[111.31084316226746,30.706007001518667]},"properties":{"name":"御龍泉宫足道·SPA·轻食","zone_id":"transit_hub","zone_name":"交通枢纽","baidu_level1":"生活服务","baidu_level2":"洗浴推拿场所","area":"宜昌","source":"amap"}},{"type":"Feature","geometry":{"type":"Point","coordinates":[111.26729916022377,30.713742370162123]},"properties":{"name":"川沐城市微度假(西陵店)","zone_id":"general","zone_name":"通用市区","baidu_level1":"生活服务","baidu_level2":"洗浴推拿场所","area":"宜昌","source":"amap"}},{"type":"Feature","geometry":{"type":"Point","coordinates":[111.3127068408233,30.75405863970477]},"properties":{"name":"老周物流公司","zone_id":"general","zone_name":"通用市区","baidu_level1":"生活服务","baidu_level2":"物流速递","area":"宜昌","source":"amap"}},{"type":"Feature","geometry":{"type":"Point","coordinates":[111.311317747715,30.707222560110523]},"properties":{"name":"雅斯超市(水悦城泰富广场店)","zone_id":"general","zone_name":"通用市区","baidu_level1":"生活服务","baidu_level2":"生活服务场所","area":"宜昌","source":"amap"}},{"type":"Feature","geometry":{"type":"Point","coordinates":[111.30922742801093,30.70795195188187]},"properties":{"name":"东方杰座","zone_id":"general","zone_name":"通用市区","baidu_level1":"生活服务","baidu_level2":"生活服务场所","area":"宜昌","source":"amap"}},{"type":"Feature","geometry":{"type":"Point","coordinates":[111.28808371825248,30.740938914473144]},"properties":{"name":"三峡人家风景区船进售票处","zone_id":"general","zone_name":"通用市区","baidu_level1":"生活服务","baidu_level2":"公园景点售票处","area":"宜昌","source":"amap"}},{"type":"Feature","geometry":{"type":"Point","coordinates":[111.29215758523948,30.703307862644408]},"properties":{"name":"华为授权服务中心(宜昌东山大道)","zone_id":"general","zone_name":"通用市区","baidu_level1":"生活服务","baidu_level2":"维修站点","area":"宜昌","source":"amap"}},{"type":"Feature","geometry":{"type":"Point","coordinates":[111.29884390859785,30.683748967278397]},"properties":{"name":"三峡游客中心售票厅","zone_id":"general","zone_name":"通用市区","baidu_level1":"生活服务","baidu_level2":"公园景点售票处","area":"宜昌","source":"amap"}},{"type":"Feature","geometry":{"type":"Point","coordinates":[111.2828164979691,30.701021177072526]},"properties":{"name":"浙足轩影院足浴·自助餐·轻奢SPA(宜昌二店)","zone_id":"general","zone_name":"通用市区","baidu_level1":"生活服务","baidu_level2":"洗浴推拿场所","area":"宜昌","source":"amap"}},{"type":"Feature","geometry":{"type":"Point","coordinates":[111.3275900657345,30.679203244936044]},"properties":{"name":"宜昌爱合口腔医院维乐口腔门诊部","zone_id":"general","zone_name":"通用市区","baidu_level1":"生活服务","baidu_level2":"生活服务场所","area":"宜昌","source":"amap"}},{"type":"Feature","geometry":{"type":"Point","coordinates":[111.31719038124277,30.671890329335206]},"properties":{"name":"宜昌中燃城市燃气发展有限公司","zone_id":"general","zone_name":"通用市区","baidu_level1":"生活服务","baidu_level2":"生活服务场所","area":"宜昌","source":"amap"}},{"type":"Feature","geometry":{"type":"Point","coordinates":[111.3011809769052,30.683246425894577]},"properties":{"name":"三峡游客接待中心","zone_id":"general","zone_name":"通用市区","baidu_level1":"生活服务","baidu_level2":"服务中心","area":"宜昌","source":"amap"}},{"type":"Feature","geometry":{"type":"Point","coordinates":[111.32103302432795,30.700069964003195]},"properties":{"name":"越汤汇·云池","zone_id":"general","zone_name":"通用市区","baidu_level1":"生活服务","baidu_level2":"洗浴推拿场所","area":"宜昌","source":"amap"}},{"type":"Feature","geometry":{"type":"Point","coordinates":[111.35531277413577,30.649691037776055]},"properties":{"name":"豪爵足道·SPA(福久源店)","zone_id":"general","zone_name":"通用市区","baidu_level1":"生活服务","baidu_level2":"洗浴推拿场所","area":"宜昌","source":"amap"}},{"type":"Feature","geometry":{"type":"Point","coordinates":[111.2855375928322,30.714458380307082]},"properties":{"name":"豪爵足道plus店","zone_id":"general","zone_name":"通用市区","baidu_level1":"生活服务","baidu_level2":"洗浴推拿场所","area":"宜昌","source":"amap"}},{"type":"Feature","geometry":{"type":"Point","coordinates":[111.31819778488422,30.668948777273208]},"properties":{"name":"永乐水汇","zone_id":"general","zone_name":"通用市区","baidu_level1":"生活服务","baidu_level2":"洗浴推拿场所","area":"宜昌","source":"amap"}},{"type":"Feature","geometry":{"type":"Point","coordinates":[111.3251322190711,30.677949523408653]},"properties":{"name":"豪爵足道·SPA(长江广场店)","zone_id":"general","zone_name":"通用市区","baidu_level1":"生活服务","baidu_level2":"洗浴推拿场所","area":"宜昌","source":"amap"}},{"type":"Feature","geometry":{"type":"Point","coordinates":[111.34607598959417,30.670153752144127]},"properties":{"name":"清江月亮湾营销中心","zone_id":"general","zone_name":"通用市区","baidu_level1":"生活服务","baidu_level2":"生活服务场所","area":"宜昌","source":"amap"}},{"type":"Feature","geometry":{"type":"Point","coordinates":[111.27896046487669,30.698159841271963]},"properties":{"name":"季域足道·采耳·SPA(陶珠路店)","zone_id":"ermalu_oldstreet","zone_name":"二马路-解放路核心老街","baidu_level1":"生活服务","baidu_level2":"美容美发店","area":"宜昌","source":"amap"}},{"type":"Feature","geometry":{"type":"Point","coordinates":[111.30940404878852,30.72987986285734]},"properties":{"name":"三峡大学接待中心","zone_id":"general","zone_name":"通用市区","baidu_level1":"生活服务","baidu_level2":"生活服务场所","area":"宜昌","source":"amap"}},{"type":"Feature","geometry":{"type":"Point","coordinates":[111.2921079484564,30.700443304821672]},"properties":{"name":"vivo官方客户服务中心(东山大道店)","zone_id":"general","zone_name":"通用市区","baidu_level1":"生活服务","baidu_level2":"维修站点","area":"宜昌","source":"amap"}},{"type":"Feature","geometry":{"type":"Point","coordinates":[111.29956604977069,30.684048673814473]},"properties":{"name":"季域足道·采耳·SPA(伍家万达店)","zone_id":"general","zone_name":"通用市区","baidu_level1":"生活服务","baidu_level2":"洗浴推拿场所","area":"宜昌","source":"amap"}},{"type":"Feature","geometry":{"type":"Point","coordinates":[111.30907575522004,30.708958734266748]},"properties":{"name":"豪爵足道·SPA(东山店)","zone_id":"general","zone_name":"通用市区","baidu_level1":"生活服务","baidu_level2":"洗浴推拿场所","area":"宜昌","source":"amap"}},{"type":"Feature","geometry":{"type":"Point","coordinates":[111.27714052137574,30.702898444697126]},"properties":{"name":"雅斯超市(天紫荟店)","zone_id":"general","zone_name":"通用市区","baidu_level1":"生活服务","baidu_level2":"生活服务场所","area":"宜昌","source":"amap"}},{"type":"Feature","geometry":{"type":"Point","coordinates":[111.29210861510495,30.704303454880204]},"properties":{"name":"豪爵足道·泰COOL·SPA(国贸店)","zone_id":"general","zone_name":"通用市区","baidu_level1":"生活服务","baidu_level2":"生活服务场所","area":"宜昌","source":"amap"}},{"type":"Feature","geometry":{"type":"Point","coordinates":[111.32111252322447,30.691704778228516]},"properties":{"name":"微特智慧谷","zone_id":"general","zone_name":"通用市区","baidu_level1":"生活服务","baidu_level2":"生活服务场所","area":"宜昌","source":"amap"}},{"type":"Feature","geometry":{"type":"Point","coordinates":[111.3137760185507,30.67138588112672]},"properties":{"name":"坐一坐","zone_id":"general","zone_name":"通用市区","baidu_level1":"生活服务","baidu_level2":"生活服务场所","area":"宜昌","source":"amap"}},{"type":"Feature","geometry":{"type":"Point","coordinates":[111.36191009537607,30.636403517086446]},"properties":{"name":"东方汇","zone_id":"general","zone_name":"通用市区","baidu_level1":"生活服务","baidu_level2":"洗浴推拿场所","area":"宜昌","source":"amap"}},{"type":"Feature","geometry":{"type":"Point","coordinates":[111.38732530774274,30.660904387945113]},"properties":{"name":"宜昌大道物流","zone_id":"general","zone_name":"通用市区","baidu_level1":"生活服务","baidu_level2":"物流速递","area":"宜昌","source":"amap"}},{"type":"Feature","geometry":{"type":"Point","coordinates":[111.30838504748078,30.681051162596177]},"properties":{"name":"燕沙云禧宴","zone_id":"general","zone_name":"通用市区","baidu_level1":"生活服务","baidu_level2":"生活服务场所","area":"宜昌","source":"amap"}},{"type":"Feature","geometry":{"type":"Point","coordinates":[111.31778762801031,30.707258628763256]},"properties":{"name":"宜昌高新区创业服务中心南苑科技创业园(珠海路)","zone_id":"wanda_cbd","zone_name":"万达-国贸商圈","baidu_level1":"生活服务","baidu_level2":"生活服务场所","area":"宜昌","source":"amap"}},{"type":"Feature","geometry":{"type":"Point","coordinates":[111.37304430917506,30.661582907010168]},"properties":{"name":"宝阁丽宴会中心","zone_id":"general","zone_name":"通用市区","baidu_level1":"生活服务","baidu_level2":"生活服务场所","area":"宜昌","source":"amap"}},{"type":"Feature","geometry":{"type":"Point","coordinates":[111.32998407188778,30.68078193468556]},"properties":{"name":"头号管家·宜昌店","zone_id":"general","zone_name":"通用市区","baidu_level1":"生活服务","baidu_level2":"生活服务场所","area":"宜昌","source":"amap"}},{"type":"Feature","geometry":{"type":"Point","coordinates":[111.29501745683142,30.70647413617661]},"properties":{"name":"宜昌烈士陵园","zone_id":"general","zone_name":"通用市区","baidu_level1":"生活服务","baidu_level2":"风景名胜","area":"宜昌","source":"amap"}},{"type":"Feature","geometry":{"type":"Point","coordinates":[111.3183463024142,30.7158174220857]},"properties":{"name":"中国邮政宜昌市分公司","zone_id":"general","zone_name":"通用市区","baidu_level1":"生活服务","baidu_level2":"物流速递","area":"宜昌","source":"amap"}},{"type":"Feature","geometry":{"type":"Point","coordinates":[111.3009345721123,30.74170739720727]},"properties":{"name":"船进三峡人家","zone_id":"general","zone_name":"通用市区","baidu_level1":"生活服务","baidu_level2":"生活服务场所","area":"宜昌","source":"amap"}},{"type":"Feature","geometry":{"type":"Point","coordinates":[111.29888665410887,30.685449108710607]},"properties":{"name":"宜昌万达广场游客中心","zone_id":"general","zone_name":"通用市区","baidu_level1":"生活服务","baidu_level2":"服务中心","area":"宜昌","source":"amap"}},{"type":"Feature","geometry":{"type":"Point","coordinates":[111.27297404312388,30.70226061319286]},"properties":{"name":"中国燃气(西陵营业厅)","zone_id":"general","zone_name":"通用市区","baidu_level1":"生活服务","baidu_level2":"生活服务场所","area":"宜昌","source":"amap"}},{"type":"Feature","geometry":{"type":"Point","coordinates":[111.3347457882624,30.700404638204102]},"properties":{"name":"愚公物流","zone_id":"general","zone_name":"通用市区","baidu_level1":"生活服务","baidu_level2":"物流速递","area":"宜昌","source":"amap"}},{"type":"Feature","geometry":{"type":"Point","coordinates":[111.387016912892,30.65860260745772]},"properties":{"name":"宜昌博达物流有限公司","zone_id":"general","zone_name":"通用市区","baidu_level1":"生活服务","baidu_level2":"物流速递","area":"宜昌","source":"amap"}},{"type":"Feature","geometry":{"type":"Point","coordinates":[111.32690092863417,30.68049596779861]},"properties":{"name":"季域足道·采耳·SPA(新华广场店)","zone_id":"general","zone_name":"通用市区","baidu_level1":"生活服务","baidu_level2":"洗浴推拿场所","area":"宜昌","source":"amap"}},{"type":"Feature","geometry":{"type":"Point","coordinates":[111.37671331644712,30.675609580919634]},"properties":{"name":"货拉拉(宜昌伍家岗店)","zone_id":"general","zone_name":"通用市区","baidu_level1":"生活服务","baidu_level2":"物流速递","area":"宜昌","source":"amap"}},{"type":"Feature","geometry":{"type":"Point","coordinates":[111.28435097982268,30.69290819177591]},"properties":{"name":"宜昌市国家电网供电局","zone_id":"ermalu_oldstreet","zone_name":"二马路-解放路核心老街","baidu_level1":"生活服务","baidu_level2":"电力营业厅","area":"宜昌","source":"amap"}},{"type":"Feature","geometry":{"type":"Point","coordinates":[111.31242008486369,30.70271273187989]},"properties":{"name":"合和大唐足道•泰式SPA(城市之光店)","zone_id":"wanda_cbd","zone_name":"万达-国贸商圈","baidu_level1":"生活服务","baidu_level2":"生活服务场所","area":"宜昌","source":"amap"}},{"type":"Feature","geometry":{"type":"Point","coordinates":[111.31225532802164,30.70518784277927]},"properties":{"name":"中国移动通信集团宜昌分公司","zone_id":"wanda_cbd","zone_name":"万达-国贸商圈","baidu_level1":"生活服务","baidu_level2":"生活服务场所","area":"宜昌","source":"amap"}},{"type":"Feature","geometry":{"type":"Point","coordinates":[111.33795525477613,30.68288982385064]},"properties":{"name":"城发望春山营销中心","zone_id":"general","zone_name":"通用市区","baidu_level1":"生活服务","baidu_level2":"生活服务场所","area":"宜昌","source":"amap"}},{"type":"Feature","geometry":{"type":"Point","coordinates":[111.30630096139916,30.712509876460157]},"properties":{"name":"千米手机电脑维修回收(水悦城店)","zone_id":"general","zone_name":"通用市区","baidu_level1":"生活服务","baidu_level2":"汽车维修","area":"宜昌","source":"amap"}},{"type":"Feature","geometry":{"type":"Point","coordinates":[111.2904105476491,30.70463269325189]},"properties":{"name":"转转二手回收(宜昌国贸大厦店)","zone_id":"general","zone_name":"通用市区","baidu_level1":"生活服务","baidu_level2":"生活服务场所","area":"宜昌","source":"amap"}},{"type":"Feature","geometry":{"type":"Point","coordinates":[111.3110905353261,30.705368863409088]},"properties":{"name":"叮聆里采耳Spa馆(No.1宜昌店)","zone_id":"wanda_cbd","zone_name":"万达-国贸商圈","baidu_level1":"生活服务","baidu_level2":"洗浴推拿场所","area":"宜昌","source":"amap"}},{"type":"Feature","geometry":{"type":"Point","coordinates":[111.38135471300626,30.662658062783]},"properties":{"name":"中国移动手机电脑维修(二手回收)","zone_id":"general","zone_name":"通用市区","baidu_level1":"生活服务","baidu_level2":"维修站点","area":"宜昌","source":"amap"}},{"type":"Feature","geometry":{"type":"Point","coordinates":[111.35471232720532,30.649097276012537]},"properties":{"name":"莲子汇影院式足道(伍家岗店)","zone_id":"general","zone_name":"通用市区","baidu_level1":"生活服务","baidu_level2":"生活服务场所","area":"宜昌","source":"amap"}},{"type":"Feature","geometry":{"type":"Point","coordinates":[111.28748204974838,30.70613792215507]},"properties":{"name":"莲子汇影院足道(夷陵广场店)","zone_id":"general","zone_name":"通用市区","baidu_level1":"生活服务","baidu_level2":"洗浴推拿场所","area":"宜昌","source":"amap"}},{"type":"Feature","geometry":{"type":"Point","coordinates":[111.36507188138316,30.66014368059758]},"properties":{"name":"宜昌东站售票处","zone_id":"general","zone_name":"通用市区","baidu_level1":"生活服务","baidu_level2":"售票处","area":"宜昌","source":"amap"}},{"type":"Feature","geometry":{"type":"Point","coordinates":[111.36754062170134,30.659268729239262]},"properties":{"name":"宜昌汽车客运中心站售票处","zone_id":"general","zone_name":"通用市区","baidu_level1":"生活服务","baidu_level2":"售票处","area":"宜昌","source":"amap"}},{"type":"Feature","geometry":{"type":"Point","coordinates":[111.31491337181262,30.73448855643488]},"properties":{"name":"宜昌泽顺物流有限公司","zone_id":"general","zone_name":"通用市区","baidu_level1":"生活服务","baidu_level2":"物流速递","area":"宜昌","source":"amap"}},{"type":"Feature","geometry":{"type":"Point","coordinates":[111.28453762227144,30.71577497715456]},