{"type":"FeatureCollection","features":[{"type":"Feature","geometry":{"type":"Point","coordinates":[111.3406305375157,30.742902628976967]},"properties":{"name":"春霖酒店(宜昌三峡企业总部基地夷陵万达广场店)","zone_id":"yiling_wanda","zone_name":"夷陵万达","baidu_level1":"餐饮服务","baidu_level2":"住宿服务相关","area":"宜昌","source":"amap","in_water":false}},{"type":"Feature","geometry":{"type":"Point","coordinates":[111.31850796652026,30.691333867725806]},"properties":{"name":"砂锅家族(西江康城店)","zone_id":"general","zone_name":"通用市区","baidu_level1":"餐饮服务","baidu_level2":"快餐厅","area":"宜昌","source":"amap","in_water":false}},{"type":"Feature","geometry":{"type":"Point","coordinates":[111.34067470283966,30.73961121661135]},"properties":{"name":"宜洋大酒店","zone_id":"general","zone_name":"通用市区","baidu_level1":"餐饮服务","baidu_level2":"宾馆酒店","area":"宜昌","source":"amap","in_water":false}},{"type":"Feature","geometry":{"type":"Point","coordinates":[111.35591205032622,30.652371896296188]},"properties":{"name":"土灶柴火鸡(桔城小区店)","zone_id":"general","zone_name":"通用市区","baidu_level1":"餐饮服务","baidu_level2":"餐饮相关","area":"宜昌","source":"amap","in_water":false}},{"type":"Feature","geometry":{"type":"Point","coordinates":[111.27368628995296,30.708373052573222]},"properties":{"name":"云南砂锅米线(北门店)","zone_id":"general","zone_name":"通用市区","baidu_level1":"餐饮服务","baidu_level2":"云贵菜","area":"宜昌","source":"amap","in_water":false}},{"type":"Feature","geometry":{"type":"Point","coordinates":[111.31215345732937,30.730063827985465]},"properties":{"name":"SOGO小吃城(三峡大学店)","zone_id":"general","zone_name":"通用市区","baidu_level1":"餐饮服务","baidu_level2":"中餐厅","area":"宜昌","source":"amap","in_water":false}},{"type":"Feature","geometry":{"type":"Point","coordinates":[111.27315618224031,30.70866837216942]},"properties":{"name":"重庆菜馆(北门外正街店)","zone_id":"general","zone_name":"通用市区","baidu_level1":"餐饮服务","baidu_level2":"四川菜(川菜)","area":"宜昌","source":"amap","in_water":false}},{"type":"Feature","geometry":{"type":"Point","coordinates":[111.32451013698788,30.676385429453518]},"properties":{"name":"良粮味社","zone_id":"general","zone_name":"通用市区","baidu_level1":"餐饮服务","baidu_level2":"中餐厅","area":"宜昌","source":"amap","in_water":false}},{"type":"Feature","geometry":{"type":"Point","coordinates":[111.30231787372334,30.7314053099148]},"properties":{"name":"釜山港韩国料理(西苑小吃街店)","zone_id":"general","zone_name":"通用市区","baidu_level1":"餐饮服务","baidu_level2":"韩国料理","area":"宜昌","source":"amap","in_water":false}},{"type":"Feature","geometry":{"type":"Point","coordinates":[111.31445386823121,30.67433729112322]},"properties":{"name":"汽渡红油面","zone_id":"general","zone_name":"通用市区","baidu_level1":"餐饮服务","baidu_level2":"中餐厅","area":"宜昌","source":"amap","in_water":false}},{"type":"Feature","geometry":{"type":"Point","coordinates":[111.28633389851305,30.702402202396776]},"properties":{"name":"峡州宾馆","zone_id":"general","zone_name":"通用市区","baidu_level1":"餐饮服务","baidu_level2":"餐饮相关","area":"宜昌","source":"amap","in_water":false}},{"type":"Feature","geometry":{"type":"Point","coordinates":[111.32754792393929,30.682224930005788]},"properties":{"name":"烤牛肉(中南路店)","zone_id":"general","zone_name":"通用市区","baidu_level1":"餐饮服务","baidu_level2":"餐饮相关","area":"宜昌","source":"amap","in_water":false}},{"type":"Feature","geometry":{"type":"Point","coordinates":[111.27964689546631,30.700877813916307]},"properties":{"name":"叶厨飘香","zone_id":"general","zone_name":"通用市区","baidu_level1":"餐饮服务","baidu_level2":"中餐厅","area":"宜昌","source":"amap","in_water":false}},{"type":"Feature","geometry":{"type":"Point","coordinates":[111.35622827614714,30.640869368465022]},"properties":{"name":"泄滩立福包子铺(弘洋·东郡A区店)","zone_id":"general","zone_name":"通用市区","baidu_level1":"餐饮服务","baidu_level2":"中餐厅","area":"宜昌","source":"amap","in_water":false}},{"type":"Feature","geometry":{"type":"Point","coordinates":[111.29836836263229,30.692421664384444]},"properties":{"name":"川味拉面米线(北山坡店)","zone_id":"general","zone_name":"通用市区","baidu_level1":"餐饮服务","baidu_level2":"四川菜(川菜)","area":"宜昌","source":"amap","in_water":false}},{"type":"Feature","geometry":{"type":"Point","coordinates":[111.28781346483325,30.69271088714589]},"properties":{"name":"华子夜宵五七油焖大虾","zone_id":"general","zone_name":"通用市区","baidu_level1":"餐饮服务","baidu_level2":"中餐厅","area":"宜昌","source":"amap","in_water":false}},{"type":"Feature","geometry":{"type":"Point","coordinates":[111.34706269625683,30.643200900796664]},"properties":{"name":"胖子宫廷牛肉火锅","zone_id":"general","zone_name":"通用市区","baidu_level1":"餐饮服务","baidu_level2":"火锅店","area":"宜昌","source":"amap","in_water":false}},{"type":"Feature","geometry":{"type":"Point","coordinates":[111.29433860005993,30.689079421707863]},"properties":{"name":"聚翁幸福家宴","zone_id":"general","zone_name":"通用市区","baidu_level1":"餐饮服务","baidu_level2":"餐饮相关","area":"宜昌","source":"amap","in_water":false}},{"type":"Feature","geometry":{"type":"Point","coordinates":[111.32471275382079,30.674113081893637]},"properties":{"name":"牛郎山","zone_id":"general","zone_name":"通用市区","baidu_level1":"餐饮服务","baidu_level2":"中餐厅","area":"宜昌","source":"amap","in_water":false}},{"type":"Feature","geometry":{"type":"Point","coordinates":[111.39523271319466,30.64796535175069]},"properties":{"name":"又一村(正宗郭场火锅鸡店)","zone_id":"general","zone_name":"通用市区","baidu_level1":"餐饮服务","baidu_level2":"火锅店","area":"宜昌","source":"amap","in_water":false}},{"type":"Feature","geometry":{"type":"Point","coordinates":[111.27917998132463,30.698836286994926]},"properties":{"name":"把把烧(恒大步行街店)","zone_id":"ermalu_oldstreet","zone_name":"二马路-解放路核心老街","baidu_level1":"餐饮服务","baidu_level2":"中餐厅","area":"宜昌","source":"amap","in_water":false}},{"type":"Feature","geometry":{"type":"Point","coordinates":[111.31225019585473,30.729983692315564]},"properties":{"name":"土耳其烤肉(三峡大学店)","zone_id":"general","zone_name":"通用市区","baidu_level1":"餐饮服务","baidu_level2":"快餐厅","area":"宜昌","source":"amap","in_water":false}},{"type":"Feature","geometry":{"type":"Point","coordinates":[111.32501965030417,30.66517454236908]},"properties":{"name":"南亚茶馆(伍家岗店)","zone_id":"general","zone_name":"通用市区","baidu_level1":"餐饮服务","baidu_level2":"茶艺馆","area":"宜昌","source":"amap","in_water":false}},{"type":"Feature","geometry":{"type":"Point","coordinates":[111.30784466725885,30.67927593290551]},"properties":{"name":"松滋杜婆鸡(港窑路店)","zone_id":"general","zone_name":"通用市区","baidu_level1":"餐饮服务","baidu_level2":"中餐厅","area":"宜昌","source":"amap","in_water":false}},{"type":"Feature","geometry":{"type":"Point","coordinates":[111.3190591743731,30.67087328696742]},"properties":{"name":"专业包面","zone_id":"general","zone_name":"通用市区","baidu_level1":"餐饮服务","baidu_level2":"餐饮相关","area":"宜昌","source":"amap","in_water":false}},{"type":"Feature","geometry":{"type":"Point","coordinates":[111.32826966460381,30.684422528744577]},"properties":{"name":"松滋杜婆鸡(宜昌第二家)","zone_id":"general","zone_name":"通用市区","baidu_level1":"餐饮服务","baidu_level2":"餐饮相关","area":"宜昌","source":"amap","in_water":false}},{"type":"Feature","geometry":{"type":"Point","coordinates":[111.31075211944275,30.720961876266607]},"properties":{"name":"芭锘客·鲜果茶(沁苑店)","zone_id":"general","zone_name":"通用市区","baidu_level1":"餐饮服务","baidu_level2":"冷饮店","area":"宜昌","source":"amap","in_water":false}},{"type":"Feature","geometry":{"type":"Point","coordinates":[111.32371274321477,30.672662651355687]},"properties":{"name":"荆沙牛骨头(宜昌中南路总店)","zone_id":"general","zone_name":"通用市区","baidu_level1":"餐饮服务","baidu_level2":"特色/地方风味餐厅","area":"宜昌","source":"amap","in_water":false}},{"type":"Feature","geometry":{"type":"Point","coordinates":[111.32479388987164,30.681388584316547]},"properties":{"name":"兰州拉面兴发广场","zone_id":"zhongnan_road","zone_name":"中南路","baidu_level1":"餐饮服务","baidu_level2":"清真菜馆","area":"宜昌","source":"amap","in_water":false}},{"type":"Feature","geometry":{"type":"Point","coordinates":[111.33243177806287,30.684246653335883]},"properties":{"name":"天天烧烤(宏峰上上城2期店)","zone_id":"general","zone_name":"通用市区","baidu_level1":"餐饮服务","baidu_level2":"特色/地方风味餐厅","area":"宜昌","source":"amap","in_water":false}},{"type":"Feature","geometry":{"type":"Point","coordinates":[111.31705055815655,30.697506678067942]},"properties":{"name":"首尔炭烤肉","zone_id":"general","zone_name":"通用市区","baidu_level1":"餐饮服务","baidu_level2":"韩国料理","area":"宜昌","source":"amap","in_water":false}},{"type":"Feature","geometry":{"type":"Point","coordinates":[111.30893758929784,30.703670528316277]},"properties":{"name":"老荆沙酒楼(深圳路店)","zone_id":"general","zone_name":"通用市区","baidu_level1":"餐饮服务","baidu_level2":"综合酒楼","area":"宜昌","source":"amap","in_water":false}},{"type":"Feature","geometry":{"type":"Point","coordinates":[111.33250558323533,30.684067595797796]},"properties":{"name":"朱记砂锅米线(上上城店)","zone_id":"general","zone_name":"通用市区","baidu_level1":"餐饮服务","baidu_level2":"中餐厅","area":"宜昌","source":"amap","in_water":false}},{"type":"Feature","geometry":{"type":"Point","coordinates":[111.2771982577649,30.72806508520265]},"properties":{"name":"红梅夜市总店","zone_id":"general","zone_name":"通用市区","baidu_level1":"餐饮服务","baidu_level2":"中餐厅","area":"宜昌","source":"amap","in_water":false}},{"type":"Feature","geometry":{"type":"Point","coordinates":[111.27612389923705,30.708783605947183]},"properties":{"name":"羊鱼锅(北门总店)","zone_id":"general","zone_name":"通用市区","baidu_level1":"餐饮服务","baidu_level2":"火锅店","area":"宜昌","source":"amap","in_water":false}},{"type":"Feature","geometry":{"type":"Point","coordinates":[111.3165555615246,30.69051190592238]},"properties":{"name":"成都麻椒肥肠锅(鑫怡翠园A区店)","zone_id":"general","zone_name":"通用市区","baidu_level1":"餐饮服务","baidu_level2":"快餐厅","area":"宜昌","source":"amap","in_water":false}},{"type":"Feature","geometry":{"type":"Point","coordinates":[111.30926933103044,30.730875604879976]},"properties":{"name":"新天地美食城(凝聚新天地店)","zone_id":"general","zone_name":"通用市区","baidu_level1":"餐饮服务","baidu_level2":"中餐厅","area":"宜昌","source":"amap","in_water":false}},{"type":"Feature","geometry":{"type":"Point","coordinates":[111.29482140329132,30.689388555439315]},"properties":{"name":"陕西裤带面(夷陵大道店)","zone_id":"general","zone_name":"通用市区","baidu_level1":"餐饮服务","baidu_level2":"中餐厅","area":"宜昌","source":"amap","in_water":false}},{"type":"Feature","geometry":{"type":"Point","coordinates":[111.35734357203198,30.64050374750013]},"properties":{"name":"水饺大王(东郡店)","zone_id":"general","zone_name":"通用市区","baidu_level1":"餐饮服务","baidu_level2":"特色/地方风味餐厅","area":"宜昌","source":"amap","in_water":false}},{"type":"Feature","geometry":{"type":"Point","coordinates":[111.2729725035539,30.708599563457867]},"properties":{"name":"三三鸭头粥(北门店)","zone_id":"general","zone_name":"通用市区","baidu_level1":"餐饮服务","baidu_level2":"中餐厅","area":"宜昌","source":"amap","in_water":false}},{"type":"Feature","geometry":{"type":"Point","coordinates":[111.27297775541545,30.70555003057772]},"properties":{"name":"巴东羊肉面馆(宜昌金融街店)","zone_id":"general","zone_name":"通用市区","baidu_level1":"餐饮服务","baidu_level2":"中餐厅","area":"宜昌","source":"amap","in_water":false}},{"type":"Feature","geometry":{"type":"Point","coordinates":[111.31241871131913,30.73017628980103]},"properties":{"name":"三锅鲜·新派焖锅","zone_id":"general","zone_name":"通用市区","baidu_level1":"餐饮服务","baidu_level2":"中餐厅","area":"宜昌","source":"amap","in_water":false}},{"type":"Feature","geometry":{"type":"Point","coordinates":[111.30300586118976,30.733875924259124]},"properties":{"name":"颐和顺","zone_id":"general","zone_name":"通用市区","baidu_level1":"餐饮服务","baidu_level2":"茶艺馆","area":"宜昌","source":"amap","in_water":false}},{"type":"Feature","geometry":{"type":"Point","coordinates":[111.35911550325115,30.638131993172358]},"properties":{"name":"牧场能量(宜昌伍临路店)","zone_id":"general","zone_name":"通用市区","baidu_level1":"餐饮服务","baidu_level2":"甜品店","area":"宜昌","source":"amap","in_water":false}},{"type":"Feature","geometry":{"type":"Point","coordinates":[111.40304415933771,30.6367190832869]},"properties":{"name":"畔山明月","zone_id":"general","zone_name":"通用市区","baidu_level1":"餐饮服务","baidu_level2":"中餐厅","area":"宜昌","source":"amap","in_water":false}},{"type":"Feature","geometry":{"type":"Point","coordinates":[111.3137998423489,30.707331989258893]},"properties":{"name":"熊猫叮咚生日蛋糕(宜昌店)","zone_id":"general","zone_name":"通用市区","baidu_level1":"餐饮服务","baidu_level2":"冷饮店","area":"宜昌","source":"amap","in_water":false}},{"type":"Feature","geometry":{"type":"Point","coordinates":[111.32912621232077,30.661396375467824]},"properties":{"name":"丑媳妇铁板烧","zone_id":"general","zone_name":"通用市区","baidu_level1":"餐饮服务","baidu_level2":"中餐厅","area":"宜昌","source":"amap","in_water":false}},{"type":"Feature","geometry":{"type":"Point","coordinates":[111.29289327498682,30.69828120214067]},"properties":{"name":"窑鸡王(西陵店)","zone_id":"general","zone_name":"通用市区","baidu_level1":"餐饮服务","baidu_level2":"餐饮相关","area":"宜昌","source":"amap","in_water":false}},{"type":"Feature","geometry":{"type":"Point","coordinates":[111.30296809988148,30.68588923714651]},"properties":{"name":"重庆坨坨牛肉馆","zone_id":"general","zone_name":"通用市区","baidu_level1":"餐饮服务","baidu_level2":"四川菜(川菜)","area":"宜昌","source":"amap","in_water":false}},{"type":"Feature","geometry":{"type":"Point","coordinates":[111.32757903316727,30.67994192557381]},"properties":{"name":"海里家里三文鱼(中南路店)","zone_id":"general","zone_name":"通用市区","baidu_level1":"餐饮服务","baidu_level2":"餐饮相关","area":"宜昌","source":"amap","in_water":false}},{"type":"Feature","geometry":{"type":"Point","coordinates":[111.2904105476491,30.70463269325189]},"properties":{"name":"酸奶罐罐(宜昌西陵国贸大厦店)","zone_id":"yiling_cbd","zone_name":"夷陵广场CBD","baidu_level1":"餐饮服务","baidu_level2":"冷饮店","area":"宜昌","source":"amap","in_water":false}},{"type":"Feature","geometry":{"type":"Point","coordinates":[111.3367123127513,30.6879328132304]},"properties":{"name":"奥田集成灶(松林路店)","zone_id":"general","zone_name":"通用市区","baidu_level1":"餐饮服务","baidu_level2":"餐饮相关","area":"宜昌","source":"amap","in_water":false}},{"type":"Feature","geometry":{"type":"Point","coordinates":[111.31206071720628,30.730033011698517]},"properties":{"name":"吾饮良品(湖北宜昌三峡大学SOGO广场)","zone_id":"general","zone_name":"通用市区","baidu_level1":"餐饮服务","baidu_level2":"冷饮店","area":"宜昌","source":"amap","in_water":false}},{"type":"Feature","geometry":{"type":"Point","coordinates":[111.30300237116329,30.68169912543915]},"properties":{"name":"宜昌富力皇冠假日酒店","zone_id":"wanda_plaza","zone_name":"万达国际广场","baidu_level1":"餐饮服务","baidu_level2":"餐饮相关","area":"宜昌","source":"amap","in_water":false}},{"type":"Feature","geometry":{"type":"Point","coordinates":[111.28488932715752,30.69881872948995]},"properties":{"name":"康庄茶楼(隆康路店)","zone_id":"general","zone_name":"通用市区","baidu_level1":"餐饮服务","baidu_level2":"茶艺馆","area":"宜昌","source":"amap","in_water":false}},{"type":"Feature","geometry":{"type":"Point","coordinates":[111.30915869234167,30.683916465750357]},"properties":{"name":"老蔡甲鱼馆(港窑路中心店)","zone_id":"general","zone_name":"通用市区","baidu_level1":"餐饮服务","baidu_level2":"海鲜酒楼","area":"宜昌","source":"amap","in_water":false}},{"type":"Feature","geometry":{"type":"Point","coordinates":[111.28240074000777,30.69653080104691]},"properties":{"name":"阿杜菜馆","zone_id":"ermalu_oldstreet","zone_name":"二马路-解放路核心老街","baidu_level1":"餐饮服务","baidu_level2":"中餐厅","area":"宜昌","source":"amap","in_water":false}},{"type":"Feature","geometry":{"type":"Point","coordinates":[111.3420420266409,30.738357327659322]},"properties":{"name":"石板新寨","zone_id":"general","zone_name":"通用市区","baidu_level1":"餐饮服务","baidu_level2":"餐饮相关","area":"宜昌","source":"amap","in_water":false}},{"type":"Feature","geometry":{"type":"Point","coordinates":[111.28569500212465,30.7173767547585]},"properties":{"name":"海海酒家(团结新苑小区店)","zone_id":"general","zone_name":"通用市区","baidu_level1":"餐饮服务","baidu_level2":"中餐厅","area":"宜昌","source":"amap","in_water":false}},{"type":"Feature","geometry":{"type":"Point","coordinates":[111.35807298092185,30.638449476757728]},"properties":{"name":"荣华家常菜馆(东郡店)","zone_id":"general","zone_name":"通用市区","baidu_level1":"餐饮服务","baidu_level2":"综合酒楼","area":"宜昌","source":"amap","in_water":false}},{"type":"Feature","geometry":{"type":"Point","coordinates":[111.28047166429499,30.696245120689255]},"properties":{"name":"花果牛魔王高品质烤牛肉","zone_id":"ermalu_oldstreet","zone_name":"二马路-解放路核心老街","baidu_level1":"餐饮服务","baidu_level2":"特色/地方风味餐厅","area":"宜昌","source":"amap","in_water":false}},{"type":"Feature","geometry":{"type":"Point","coordinates":[111.31054971677658,30.685802104925045]},"properties":{"name":"荆沙牛骨头(宜昌港窑路店)","zone_id":"general","zone_name":"通用市区","baidu_level1":"餐饮服务","baidu_level2":"中餐厅","area":"宜昌","source":"amap","in_water":false}},{"type":"Feature","geometry":{"type":"Point","coordinates":[111.31340580733843,30.731981585813404]},"properties":{"name":"宜醉烧烤(学府花园店)","zone_id":"general","zone_name":"通用市区","baidu_level1":"餐饮服务","baidu_level2":"特色/地方风味餐厅","area":"宜昌","source":"amap","in_water":false}},{"type":"Feature","geometry":{"type":"Point","coordinates":[111.28414420649484,30.69536828083844]},"properties":{"name":"瑜儿腊货馆","zone_id":"ermalu_oldstreet","zone_name":"二马路-解放路核心老街","baidu_level1":"餐饮服务","baidu_level2":"中餐厅","area":"宜昌","source":"amap","in_water":false}},{"type":"Feature","geometry":{"type":"Point","coordinates":[111.2741384948224,30.708419628055566]},"properties":{"name":"小胡牛(北门总店)","zone_id":"general","zone_name":"通用市区","baidu_level1":"餐饮服务","baidu_level2":"特色/地方风味餐厅","area":"宜昌","source":"amap","in_water":false}},{"type":"Feature","geometry":{"type":"Point","coordinates":[111.28731195397674,30.72328976948971]},"properties":{"name":"小曹甲鱼火锅(葛洲坝店)","zone_id":"general","zone_name":"通用市区","baidu_level1":"餐饮服务","baidu_level2":"海鲜酒楼","area":"宜昌","source":"amap","in_water":false}},{"type":"Feature","geometry":{"type":"Point","coordinates":[111.30237890485247,30.682816647894327]},"properties":{"name":"宜昌伍家岗万达广场","zone_id":"wanda_plaza","zone_name":"万达国际广场","baidu_level1":"购物服务","baidu_level2":"购物中心","area":"宜昌","source":"amap","in_water":false}},{"type":"Feature","geometry":{"type":"Point","coordinates":[111.28532361716609,30.70789583537872]},"properties":{"name":"CBD·购物中心","zone_id":"general","zone_name":"通用市区","baidu_level1":"购物服务","baidu_level2":"购物中心","area":"宜昌","source":"amap","in_water":false}},{"type":"Feature","geometry":{"type":"Point","coordinates":[111.32889286112898,30.742067266367968]},"properties":{"name":"吾悦广场(宜昌店)","zone_id":"wuyue_square","zone_name":"吾悦广场","baidu_level1":"购物服务","baidu_level2":"购物中心","area":"宜昌","source":"amap","in_water":false}},{"type":"Feature","geometry":{"type":"Point","coordinates":[111.29028280222478,30.705098646432965]},"properties":{"name":"国贸大厦购物广场(国贸大厦店)","zone_id":"yiling_cbd","zone_name":"夷陵广场CBD","baidu_level1":"购物服务","baidu_level2":"商场","area":"宜昌","source":"amap","in_water":false}},{"type":"Feature","geometry":{"type":"Point","coordinates":[111.31053279057801,30.708624295628347]},"properties":{"name":"水悦城","zone_id":"shuiyuecheng","zone_name":"水悦城","baidu_level1":"购物服务","baidu_level2":"购物中心","area":"宜昌","source":"amap","in_water":false}},{"type":"Feature","geometry":{"type":"Point","coordinates":[111.32336710668034,30.679875005336424]},"properties":{"name":"宜昌环球港","zone_id":"general","zone_name":"通用市区","baidu_level1":"购物服务","baidu_level2":"购物中心","area":"宜昌","source":"amap","in_water":false}},{"type":"Feature","geometry":{"type":"Point","coordinates":[111.32634970798327,30.678201079882417]},"properties":{"name":"方圆荟·长江广场","zone_id":"general","zone_name":"通用市区","baidu_level1":"购物服务","baidu_level2":"商场","area":"宜昌","source":"amap","in_water":false}},{"type":"Feature","geometry":{"type":"Point","coordinates":[111.28541027330516,30.70972884009123]},"properties":{"name":"大洋百货(宜昌店)","zone_id":"general","zone_name":"通用市区","baidu_level1":"购物服务","baidu_level2":"购物中心","area":"宜昌","source":"amap","in_water":false}},{"type":"Feature","geometry":{"type":"Point","coordinates":[111.35696840774042,30.65283900012265]},"properties":{"name":"福久源·新天地","zone_id":"general","zone_name":"通用市区","baidu_level1":"购物服务","baidu_level2":"普通商场","area":"宜昌","source":"amap","in_water":false}},{"type":"Feature","geometry":{"type":"Point","coordinates":[111.29246455414672,30.69523226988366]},"properties":{"name":"星光天地","zone_id":"general","zone_name":"通用市区","baidu_level1":"购物服务","baidu_level2":"公司","area":"宜昌","source":"amap","in_water":false}},{"type":"Feature","geometry":{"type":"Point","coordinates":[111.2796470392659,30.699195616475894]},"properties":{"name":"宜昌解放路步行街","zone_id":"ermalu_oldstreet","zone_name":"二马路-解放路核心老街","baidu_level1":"购物服务","baidu_level2":"步行街","area":"宜昌","source":"amap","in_water":false}},{"type":"Feature","geometry":{"type":"Point","coordinates":[111.29351709191717,30.717977770579733]},"properties":{"name":"华祥商业中心","zone_id":"general","zone_name":"通用市区","baidu_level1":"购物服务","baidu_level2":"购物中心","area":"宜昌","source":"amap","in_water":false}},{"type":"Feature","geometry":{"type":"Point","coordinates":[111.31904485664637,30.69809066197247]},"properties":{"name":"金东山大市场","zone_id":"general","zone_name":"通用市区","baidu_level1":"购物服务","baidu_level2":"购物相关场所","area":"宜昌","source":"amap","in_water":false}},{"type":"Feature","geometry":{"type":"Point","coordinates":[111.35582443181383,30.650495857959324]},"properties":{"name":"国贸·新天地","zone_id":"wuyi_square","zone_name":"五一广场","baidu_level1":"购物服务","baidu_level2":"普通商场","area":"宜昌","source":"amap","in_water":false}},{"type":"Feature","geometry":{"type":"Point","coordinates":[111.2803699077733,30.695762461503143]},"properties":{"name":"二马路历史文化街区","zone_id":"ermalu_oldstreet","zone_name":"二马路-解放路核心老街","baidu_level1":"购物服务","baidu_level2":"特色商业街","area":"宜昌","source":"amap","in_water":false}},{"type":"Feature","geometry":{"type":"Point","coordinates":[111.31136561867015,30.70718549157807]},"properties":{"name":"雅斯广场","zone_id":"shuiyuecheng","zone_name":"水悦城","baidu_level1":"购物服务","baidu_level2":"购物中心","area":"宜昌","source":"amap","in_water":false}},{"type":"Feature","geometry":{"type":"Point","coordinates":[111.30442668204918,30.680959064852956]},"properties":{"name":"宜昌国际广场","zone_id":"general","zone_name":"通用市区","baidu_level1":"购物服务","baidu_level2":"购物中心","area":"宜昌","source":"amap","in_water":false}},{"type":"Feature","geometry":{"type":"Point","coordinates":[111.28611900346591,30.706639439704297]},"properties":{"name":"商业城步行街(CBD购物中心店)","zone_id":"general","zone_name":"通用市区","baidu_level1":"购物服务","baidu_level2":"步行街","area":"宜昌","source":"amap","in_water":false}},{"type":"Feature","geometry":{"type":"Point","coordinates":[111.27831866862074,30.698519340542518]},"properties":{"name":"恒大步行街","zone_id":"ermalu_oldstreet","zone_name":"二马路-解放路核心老街","baidu_level1":"购物服务","baidu_level2":"步行街","area":"宜昌","source":"amap","in_water":false}},{"type":"Feature","geometry":{"type":"Point","coordinates":[111.28850071674817,30.706786260866565]},"properties":{"name":"T68创想城","zone_id":"general","zone_name":"通用市区","baidu_level1":"购物服务","baidu_level2":"普通商场","area":"宜昌","source":"amap","in_water":false}},{"type":"Feature","geometry":{"type":"Point","coordinates":[111.31212752924614,30.730063875031746]},"properties":{"name":"三峡大学Sogo生活广场","zone_id":"general","zone_name":"通用市区","baidu_level1":"购物服务","baidu_level2":"购物相关场所","area":"宜昌","source":"amap","in_water":false}},{"type":"Feature","geometry":{"type":"Point","coordinates":[111.32069570661378,30.703294060112373]},"properties":{"name":"金东山家居建材广场","zone_id":"general","zone_name":"通用市区","baidu_level1":"购物服务","baidu_level2":"家具建材综合市场","area":"宜昌","source":"amap","in_water":false}},{"type":"Feature","geometry":{"type":"Point","coordinates":[111.33580596691044,30.698318624487644]},"properties":{"name":"湖北省宜昌市般果集采平台三峡果蔬交易中心","zone_id":"general","zone_name":"通用市区","baidu_level1":"购物服务","baidu_level2":"果品市场","area":"宜昌","source":"amap","in_water":false}},{"type":"Feature","geometry":{"type":"Point","coordinates":[111.3219523410815,30.700744897717385]},"properties":{"name":"金东山商业城","zone_id":"general","zone_name":"通用市区","baidu_level1":"购物服务","baidu_level2":"综合市场","area":"宜昌","source":"amap","in_water":false}},{"type":"Feature","geometry":{"type":"Point","coordinates":[111.30942787852379,30.73109421358914]},"properties":{"name":"凝聚新天地","zone_id":"general","zone_name":"通用市区","baidu_level1":"购物服务","baidu_level2":"购物中心","area":"宜昌","source":"amap","in_water":false}},{"type":"Feature","geometry":{"type":"Point","coordinates":[111.27955612513416,30.700271201217387]},"properties":{"name":"时代购物广场","zone_id":"general","zone_name":"通用市区","baidu_level1":"购物服务","baidu_level2":"购物中心","area":"宜昌","source":"amap","in_water":false}},{"type":"Feature","geometry":{"type":"Point","coordinates":[111.30224861241777,30.736523854510715]},"properties":{"name":"夜明珠建材市场","zone_id":"general","zone_name":"通用市区","baidu_level1":"购物服务","baidu_level2":"建材五金市场","area":"宜昌","source":"amap","in_water":false}},{"type":"Feature","geometry":{"type":"Point","coordinates":[111.34060071602367,30.673149367356707]},"properties":{"name":"天悦广场","zone_id":"general","zone_name":"通用市区","baidu_level1":"购物服务","baidu_level2":"购物中心","area":"宜昌","source":"amap","in_water":false}},{"type":"Feature","geometry":{"type":"Point","coordinates":[111.32771017713307,30.74292509456896]},"properties":{"name":"宜昌吾悦广场(锦江大道店)-西区","zone_id":"wuyue_square","zone_name":"吾悦广场","baidu_level1":"购物服务","baidu_level2":"购物中心","area":"宜昌","source":"amap","in_water":false}},{"type":"Feature","geometry":{"type":"Point","coordinates":[111.3335566524617,30.729237816907467]},"properties":{"name":"居然之家(宜昌店)","zone_id":"general","zone_name":"通用市区","baidu_level1":"购物服务","baidu_level2":"家具建材综合市场","area":"宜昌","source":"amap","in_water":false}},{"type":"Feature","geometry":{"type":"Point","coordinates":[111.35484411883321,30.647705665146198]},"properties":{"name":"盛景广场","zone_id":"general","zone_name":"通用市区","baidu_level1":"购物服务","baidu_level2":"普通商场","area":"宜昌","source":"amap","in_water":false}},{"type":"Feature","geometry":{"type":"Point","coordinates":[111.3305541057374,30.730572879010662]},"properties":{"name":"易中建材家装大世界","zone_id":"general","zone_name":"通用市区","baidu_level1":"购物服务","baidu_level2":"建材五金市场","area":"宜昌","source":"amap","in_water":false}},{"type":"Feature","geometry":{"type":"Point","coordinates":[111.30993059441727,30.70689520933791]},"properties":{"name":"康龙国际广场","zone_id":"shuiyuecheng","zone_name":"水悦城","baidu_level1":"购物服务","baidu_level2":"商场","area":"宜昌","source":"amap","in_water":false}},{"type":"Feature","geometry":{"type":"Point","coordinates":[111.28516221870282,30.716580811570044]},"properties":{"name":"东湖海鲜市场(东湖社区卫生服务中心西南)","zone_id":"general","zone_name":"通用市区","baidu_level1":"购物服务","baidu_level2":"蔬菜市场","area":"宜昌","source":"amap","in_water":false}},{"type":"Feature","geometry":{"type":"Point","coordinates":[111.29322848676073,30.72141250348992]},"properties":{"name":"时光里(常刘路店)","zone_id":"general","zone_name":"通用市区","baidu_level1":"购物服务","baidu_level2":"普通商场","area":"宜昌","source":"amap","in_water":false}},{"type":"Feature","geometry":{"type":"Point","coordinates":[111.2833310767207,30.705129598691293]},"properties":{"name":"丽人世界商场","zone_id":"general","zone_name":"通用市区","baidu_level1":"购物服务","baidu_level2":"服装鞋帽皮具店","area":"宜昌","source":"amap","in_water":false}},{"type":"Feature","geometry":{"type":"Point","coordinates":[111.37876917057451,30.62570032856394]},"properties":{"name":"共联商贸大市场","zone_id":"general","zone_name":"通用市区","baidu_level1":"购物服务","baidu_level2":"综合市场","area":"宜昌","source":"amap","in_water":false}},{"type":"Feature","geometry":{"type":"Point","coordinates":[111.37981303796681,30.67563855927473]},"properties":{"name":"宜昌喜盈门家居公园","zone_id":"general","zone_name":"通用市区","baidu_level1":"购物服务","baidu_level2":"家居建材市场","area":"宜昌","source":"amap","in_water":false}},{"type":"Feature","geometry":{"type":"Point","coordinates":[111.36059548879224,30.632561096422148]},"properties":{"name":"金都建材家居广场","zone_id":"general","zone_name":"通用市区","baidu_level1":"购物服务","baidu_level2":"家具城","area":"宜昌","source":"amap","in_water":false}},{"type":"Feature","geometry":{"type":"Point","coordinates":[111.32323044764992,30.680451999465046]},"properties":{"name":"沃尔玛(宜昌环球港店)","zone_id":"general","zone_name":"通用市区","baidu_level1":"购物服务","baidu_level2":"沃尔玛","area":"宜昌","source":"amap","in_water":false}},{"type":"Feature","geometry":{"type":"Point","coordinates":[111.28722862292662,30.69435087959851]},"properties":{"name":"隆康电信城(隆康路营业厅)","zone_id":"general","zone_name":"通用市区","baidu_level1":"购物服务","baidu_level2":"手机销售","area":"宜昌","source":"amap","in_water":false}},{"type":"Feature","geometry":{"type":"Point","coordinates":[111.31974203780052,30.696206243160006]},"properties":{"name":"三峡文化城","zone_id":"general","zone_name":"通用市区","baidu_level1":"购物服务","baidu_level2":"综合市场","area":"宜昌","source":"amap","in_water":false}},{"type":"Feature","geometry":{"type":"Point","coordinates":[111.28391599833046,30.726720336147363]},"properties":{"name":"葛洲坝中心菜市场","zone_id":"general","zone_name":"通用市区","baidu_level1":"购物服务","baidu_level2":"手机销售","area":"宜昌","source":"amap","in_water":false}},{"type":"Feature","geometry":{"type":"Point","coordinates":[111.28617287661818,30.70675031769261]},"properties":{"name":"CBD·中央大街","zone_id":"general","zone_name":"通用市区","baidu_level1":"购物服务","baidu_level2":"特色商业街","area":"宜昌","source":"amap","in_water":false}},{"type":"Feature","geometry":{"type":"Point","coordinates":[111.28585942219085,30.708332950983703]},"properties":{"name":"沃尔玛(CBD购物中心店)","zone_id":"general","zone_name":"通用市区","baidu_level1":"购物服务","baidu_level2":"沃尔玛","area":"宜昌","source":"amap","in_water":false}},{"type":"Feature","geometry":{"type":"Point","coordinates":[111.29143646422617,30.701144926204297]},"properties":{"name":"合美通讯广场(果园一路)","zone_id":"general","zone_name":"通用市区","baidu_level1":"购物服务","baidu_level2":"手机销售","area":"宜昌","source":"amap","in_water":false}},{"type":"Feature","geometry":{"type":"Point","coordinates":[111.3852985985287,30.665794559545876]},"properties":{"name":"三峡物流园-水产市场","zone_id":"general","zone_name":"通用市区","baidu_level1":"购物服务","baidu_level2":"水产海鲜市场","area":"宜昌","source":"amap","in_water":false}},{"type":"Feature","geometry":{"type":"Point","coordinates":[111.32510709978772,30.680152556901792]},"properties":{"name":"永辉超市(湖北宜昌市宜昌兴发广场店)","zone_id":"general","zone_name":"通用市区","baidu_level1":"购物服务","baidu_level2":"超市","area":"宜昌","source":"amap","in_water":false}},{"type":"Feature","geometry":{"type":"Point","coordinates":[111.3608230982134,30.63093743627115]},"properties":{"name":"金都建材城","zone_id":"general","zone_name":"通用市区","baidu_level1":"购物服务","baidu_level2":"建材五金市场","area":"宜昌","source":"amap","in_water":false}},{"type":"Feature","geometry":{"type":"Point","coordinates":[111.3019859582261,30.740440310806747]},"properties":{"name":"宜昌市夜明珠钢材货场","zone_id":"general","zone_name":"通用市区","baidu_level1":"购物服务","baidu_level2":"建材五金市场","area":"宜昌","source":"amap","in_water":false}},{"type":"Feature","geometry":{"type":"Point","coordinates":[111.30051549593891,30.731915016937318]},"properties":{"name":"大明菜市场","zone_id":"general","zone_name":"通用市区","baidu_level1":"购物服务","baidu_level2":"蔬菜市场","area":"宜昌","source":"amap","in_water":false}},{"type":"Feature","geometry":{"type":"Point","coordinates":[111.37866609432704,30.67391941850931]},"properties":{"name":"雅斯超市(喜盈门店)","zone_id":"general","zone_name":"通用市区","baidu_level1":"购物服务","baidu_level2":"购物相关场所","area":"宜昌","source":"amap","in_water":false}},{"type":"Feature","geometry":{"type":"Point","coordinates":[111.27923219196254,30.706867381833494]},"properties":{"name":"东门综合市场(东门外正街)","zone_id":"general","zone_name":"通用市区","baidu_level1":"购物服务","baidu_level2":"综合市场","area":"宜昌","source":"amap","in_water":false}},{"type":"Feature","geometry":{"type":"Point","coordinates":[111.36641533833401,30.655740791282263]},"properties":{"name":"宜亚酒店(宜昌火车东站店)","zone_id":"general","zone_name":"通用市区","baidu_level1":"购物服务","baidu_level2":"购物相关场所","area":"宜昌","source":"amap","in_water":false}},{"type":"Feature","geometry":{"type":"Point","coordinates":[111.29296741730309,30.717832645192097]},"properties":{"name":"麦德龙(西陵商场店)","zone_id":"general","zone_name":"通用市区","baidu_level1":"购物服务","baidu_level2":"综合市场","area":"宜昌","source":"amap","in_water":false}},{"type":"Feature","geometry":{"type":"Point","coordinates":[111.27808059560094,30.70467664029316]},"properties":{"name":"万悦健康城","zone_id":"general","zone_name":"通用市区","baidu_level1":"购物服务","baidu_level2":"生活服务场所","area":"宜昌","source":"amap","in_water":false}},{"type":"Feature","geometry":{"type":"Point","coordinates":[111.28127284531661,30.710421427037836]},"properties":{"name":"新天地数码电脑城(珍珠路)","zone_id":"general","zone_name":"通用市区","baidu_level1":"购物服务","baidu_level2":"数码电子","area":"宜昌","source":"amap","in_water":false}},{"type":"Feature","geometry":{"type":"Point","coordinates":[111.36468469993912,30.62640272993576]},"properties":{"name":"泰丰陶瓷城","zone_id":"general","zone_name":"通用市区","baidu_level1":"购物服务","baidu_level2":"建材五金市场","area":"宜昌","source":"amap","in_water":false}},{"type":"Feature","geometry":{"type":"Point","coordinates":[111.28152429217441,30.710946887608625]},"properties":{"name":"宜昌新华书店·屈原书城","zone_id":"general","zone_name":"通用市区","baidu_level1":"购物服务","baidu_level2":"家电电子卖场","area":"宜昌","source":"amap","in_water":false}},{"type":"Feature","geometry":{"type":"Point","coordinates":[111.29279975358826,30.71855953193448]},"properties":{"name":"欧亚达家居(宜昌西陵旗舰店)","zone_id":"general","zone_name":"通用市区","baidu_level1":"购物服务","baidu_level2":"公司","area":"宜昌","source":"amap","in_water":false}},{"type":"Feature","geometry":{"type":"Point","coordinates":[111.35779031459927,30.65386225199728]},"properties":{"name":"雅斯超市(香山福久源店)","zone_id":"general","zone_name":"通用市区","baidu_level1":"购物服务","baidu_level2":"超市","area":"宜昌","source":"amap","in_water":false}},{"type":"Feature","geometry":{"type":"Point","coordinates":[111.32350092128853,30.700639001631796]},"properties":{"name":"金东山家具城","zone_id":"general","zone_name":"通用市区","baidu_level1":"购物服务","baidu_level2":"家居建材市场","area":"宜昌","source":"amap","in_water":false}},{"type":"Feature","geometry":{"type":"Point","coordinates":[111.32786391540077,30.740868844099914]},"properties":{"name":"雅斯超市(吾悦广场店)","zone_id":"wuyue_square","zone_name":"吾悦广场","baidu_level1":"购物服务","baidu_level2":"超市","area":"宜昌","source":"amap","in_water":false}},{"type":"Feature","geometry":{"type":"Point","coordinates":[111.29256036474919,30.694796337907793]},"properties":{"name":"北山生活超市(星光天地店)","zone_id":"general","zone_name":"通用市区","baidu_level1":"购物服务","baidu_level2":"便民商店/便利店","area":"宜昌","source":"amap","in_water":false}},{"type":"Feature","geometry":{"type":"Point","coordinates":[111.28236507682374,30.7051227373296]},"properties":{"name":"上海三联书店(宜昌店)","zone_id":"general","zone_name":"通用市区","baidu_level1":"购物服务","baidu_level2":"书店","area":"宜昌","source":"amap","in_water":false}},{"type":"Feature","geometry":{"type":"Point","coordinates":[111.2908525931201,30.70383446004846]},"properties":{"name":"国贸南楼","zone_id":"yiling_cbd","zone_name":"夷陵广场CBD","baidu_level1":"购物服务","baidu_level2":"普通商场","area":"宜昌","source":"amap","in_water":false}},{"type":"Feature","geometry":{"type":"Point","coordinates":[111.34683989300758,30.64777631941493]},"properties":{"name":"夷顺商厦","zone_id":"general","zone_name":"通用市区","baidu_level1":"购物服务","baidu_level2":"购物中心","area":"宜昌","source":"amap","in_water":false}},{"type":"Feature","geometry":{"type":"Point","coordinates":[111.28590618126849,30.709958105032147]},"properties":{"name":"大洋晶典","zone_id":"general","zone_name":"通用市区","baidu_level1":"购物服务","baidu_level2":"购物相关场所","area":"宜昌","source":"amap","in_water":false}},{"type":"Feature","geometry":{"type":"Point","coordinates":[111.30259709789723,30.685572004446325]},"properties":{"name":"联想客户服务中心(百应伍家江海店)","zone_id":"general","zone_name":"通用市区","baidu_level1":"购物服务","baidu_level2":"维修站点","area":"宜昌","source":"amap","in_water":false}},{"type":"Feature","geometry":{"type":"Point","coordinates":[111.36640627126769,30.668100288221837]},"properties":{"name":"东风日产宜昌交运麟宏全功能中心","zone_id":"general","zone_name":"通用市区","baidu_level1":"购物服务","baidu_level2":"购物相关场所","area":"宜昌","source":"amap","in_water":false}},{"type":"Feature","geometry":{"type":"Point","coordinates":[111.32830061099182,30.74146870389286]},"properties":{"name":"吾悦广场-东区","zone_id":"wuyue_square","zone_name":"吾悦广场","baidu_level1":"购物服务","baidu_level2":"购物相关场所","area":"宜昌","source":"amap","in_water":false}},{"type":"Feature","geometry":{"type":"Point","coordinates":[111.2897156187326,30.699111294883743]},"properties":{"name":"诗情花艺","zone_id":"general","zone_name":"通用市区","baidu_level1":"购物服务","baidu_level2":"花卉市场","area":"宜昌","source":"amap","in_water":false}},{"type":"Feature","geometry":{"type":"Point","coordinates":[111.32380585647256,30.66828445896551]},"properties":{"name":"熊大生活购物广场","zone_id":"general","zone_name":"通用市区","baidu_level1":"购物服务","baidu_level2":"购物相关场所","area":"宜昌","source":"amap","in_water":false}},{"type":"Feature","geometry":{"type":"Point","coordinates":[111.34450729355706,30.646591015225948]},"properties":{"name":"伍家菜市场","zone_id":"general","zone_name":"通用市区","baidu_level1":"购物服务","baidu_level2":"蔬菜市场","area":"宜昌","source":"amap","in_water":false}},{"type":"Feature","geometry":{"type":"Point","coordinates":[111.29900801262276,30.689331101596505]},"properties":{"name":"张家店菜市场","zone_id":"general","zone_name":"通用市区","baidu_level1":"购物服务","baidu_level2":"便民商店/便利店","area":"宜昌","source":"amap","in_water":false}},{"type":"Feature","geometry":{"type":"Point","coordinates":[111.33086904897111,30.732361381876085]},"properties":{"name":"林氏家居(宜昌易家居店)","zone_id":"general","zone_name":"通用市区","baidu_level1":"购物服务","baidu_level2":"家具城","area":"宜昌","source":"amap","in_water":false}},{"type":"Feature","geometry":{"type":"Point","coordinates":[111.28867067042458,30.691216449972217]},"properties":{"name":"隆中路市场","zone_id":"general","zone_name":"通用市区","baidu_level1":"购物服务","baidu_level2":"综合市场","area":"宜昌","source":"amap","in_water":false}},{"type":"Feature","geometry":{"type":"Point","coordinates":[111.29067590713306,30.70494717245049]},"properties":{"name":"Apple授权专营店(西陵国贸店)","zone_id":"yiling_cbd","zone_name":"夷陵广场CBD","baidu_level1":"购物服务","baidu_level2":"手机销售","area":"宜昌","source":"amap","in_water":false}},{"type":"Feature","geometry":{"type":"Point","coordinates":[111.30213552240468,30.683008962707774]},"properties":{"name":"Apple授权专营店(宜昌万达店)","zone_id":"wanda_plaza","zone_name":"万达国际广场","baidu_level1":"购物服务","baidu_level2":"手机销售","area":"宜昌","source":"amap","in_water":false}},{"type":"Feature","geometry":{"type":"Point","coordinates":[111.32430044708356,30.679732291206737]},"properties":{"name":"联想体验店(宜昌环球港店)","zone_id":"general","zone_name":"通用市区","baidu_level1":"购物服务","baidu_level2":"数码电子","area":"宜昌","source":"amap","in_water":false}},{"type":"Feature","geometry":{"type":"Point","coordinates":[111.29899924597918,30.686878263023114]},"properties":{"name":"雅斯超市(九码头店)","zone_id":"general","zone_name":"通用市区","baidu_level1":"购物服务","baidu_level2":"超市","area":"宜昌","source":"amap","in_water":false}},{"type":"Feature","geometry":{"type":"Point","coordinates":[111.32358944836982,30.68012846467264]},"properties":{"name":"Apple授权专营店(三峡环球港店)","zone_id":"general","zone_name":"通用市区","baidu_level1":"购物服务","baidu_level2":"手机销售","area":"宜昌","source":"amap","in_water":false}},{"type":"Feature","geometry":{"type":"Point","coordinates":[111.29030576981805,30.704859729511636]},"properties":{"name":"国贸大厦北楼","zone_id":"yiling_cbd","zone_name":"夷陵广场CBD","baidu_level1":"购物服务","baidu_level2":"普通商场","area":"宜昌","source":"amap","in_water":false}},{"type":"Feature","geometry":{"type":"Point","coordinates":[111.28042438751157,30.70057311300199]},"properties":{"name":"朱哥甜栗专卖店(中山路店)","zone_id":"general","zone_name":"通用市区","baidu_level1":"购物服务","baidu_level2":"果品市场","area":"宜昌","source":"amap","in_water":false}},{"type":"Feature","geometry":{"type":"Point","coordinates":[111.3012468062547,30.683253314769747]},"properties":{"name":"三福时尚(宜昌伍家岗万达广场店)","zone_id":"wanda_plaza","zone_name":"万达国际广场","baidu_level1":"购物服务","baidu_level2":"购物相关场所","area":"宜昌","source":"amap","in_water":false}},{"type":"Feature","geometry":{"type":"Point","coordinates":[111.29217280629854,30.700318271514075]},"properties":{"name":"OPPO官方授权服务体验中心(宜昌西陵区东山大道1店)","zone_id":"general","zone_name":"通用市区","baidu_level1":"购物服务","baidu_level2":"维修站点","area":"宜昌","source":"amap","in_water":false}},{"type":"Feature","geometry":{"type":"Point","coordinates":[111.34294009426654,30.65209846682442]},"properties":{"name":"北山生活超市(东辰心语店)","zone_id":"general","zone_name":"通用市区","baidu_level1":"购物服务","baidu_level2":"便民商店/便利店","area":"宜昌","source":"amap","in_water":false}},{"type":"Feature","geometry":{"type":"Point","coordinates":[111.34587294012711,30.64264326034572]},"properties":{"name":"华为授权服务中心(宜昌伍家岗)","zone_id":"general","zone_name":"通用市区","baidu_level1":"购物服务","baidu_level2":"维修站点","area":"宜昌","source":"amap","in_water":false}},{"type":"Feature","geometry":{"type":"Point","coordinates":[111.31376955474212,30.711630962312423]},"properties":{"name":"东山家私市场","zone_id":"general","zone_name":"通用市区","baidu_level1":"购物服务","baidu_level2":"家具城","area":"宜昌","source":"amap","in_water":false}},{"type":"Feature","geometry":{"type":"Point","coordinates":[111.28661289027649,30.707036616701302]},"properties":{"name":"雅斯超市(铁路坝店)","zone_id":"general","zone_name":"通用市区","baidu_level1":"购物服务","baidu_level2":"超市","area":"宜昌","source":"amap","in_water":false}},{"type":"Feature","geometry":{"type":"Point","coordinates":[111.30256043524385,30.682768368226533]},"properties":{"name":"华为授权体验店(伍家岗万达)","zone_id":"wanda_plaza","zone_name":"万达国际广场","baidu_level1":"购物服务","baidu_level2":"手机销售","area":"宜昌","source":"amap","in_water":false}},{"type":"Feature","geometry":{"type":"Point","coordinates":[111.31009300878078,30.68537312312418]},"properties":{"name":"7天优品酒店(宜昌万达广场运河公园店)","zone_id":"general","zone_name":"通用市区","baidu_level1":"购物服务","baidu_level2":"宾馆酒店","area":"宜昌","source":"amap","in_water":false}},{"type":"Feature","geometry":{"type":"Point","coordinates":[111.3105058949118,30.708273513547766]},"properties":{"name":"自己人(水悦城店)","zone_id":"shuiyuecheng","zone_name":"水悦城","baidu_level1":"购物服务","baidu_level2":"购物相关场所","area":"宜昌","source":"amap","in_water":false}},{"type":"Feature","geometry":{"type":"Point","coordinates":[111.29000439922916,30.70560378813995]},"properties":{"name":"DJI大疆(宜昌国贸授权体验店)","zone_id":"yiling_cbd","zone_name":"夷陵广场CBD","baidu_level1":"购物服务","baidu_level2":"数码电子","area":"宜昌","source":"amap","in_water":false}},{"type":"Feature","geometry":{"type":"Point","coordinates":[111.2856027555319,30.710923019532647]},"properties":{"name":"瑞司视光·蔡司眼镜官方授权店(宜昌CBD恒基国际)","zone_id":"general","zone_name":"通用市区","baidu_level1":"购物服务","baidu_level2":"眼镜店","area":"宜昌","source":"amap","in_water":false}},{"type":"Feature","geometry":{"type":"Point","coordinates":[111.28542025728404,30.709664858602814]},"properties":{"name":"Apple授权专营店(西陵大洋百货店)","zone_id":"general","zone_name":"通用市区","baidu_level1":"购物服务","baidu_level2":"手机销售","area":"宜昌","source":"amap","in_water":false}},{"type":"Feature","geometry":{"type":"Point","coordinates":[111.3835566540906,30.670735623719562]},"properties":{"name":"宜晓通旧货市场","zone_id":"general","zone_name":"通用市区","baidu_level1":"购物服务","baidu_level2":"旧货市场","area":"宜昌","source":"amap","in_water":false}},{"type":"Feature","geometry":{"type":"Point","coordinates":[111.29242099152088,30.702977642297533]},"properties":{"name":"小米之家(宜昌西陵区东山大道专卖店)","zone_id":"general","zone_name":"通用市区","baidu_level1":"购物服务","baidu_level2":"维修站点","area":"宜昌","source":"amap","in_water":false}},{"type":"Feature","geometry":{"type":"Point","coordinates":[111.29575908344293,30.71297886173627]},"properties":{"name":"403菜市场","zone_id":"general","zone_name":"通用市区","baidu_level1":"购物服务","baidu_level2":"蔬菜市场","area":"宜昌","source":"amap","in_water":false}},{"type":"Feature","geometry":{"type":"Point","coordinates":[111.30255447389227,30.682500502286132]},"properties":{"name":"优衣库(宜昌伍家岗万达广场店)","zone_id":"wanda_plaza","zone_name":"万达国际广场","baidu_level1":"购物服务","baidu_level2":"品牌服装店","area":"宜昌","source":"amap","in_water":false}},{"type":"Feature","geometry":{"type":"Point","coordinates":[111.28914186243288,30.711498116166997]},"properties":{"name":"苏宁易购(金缔华城店)","zone_id":"general","zone_name":"通用市区","baidu_level1":"购物服务","baidu_level2":"苏宁","area":"宜昌","source":"amap","in_water":false}},{"type":"Feature","geometry":{"type":"Point","coordinates":[111.292896121812,30.69998438645314]},"properties":{"name":"中国移动(东山营业厅)","zone_id":"general","zone_name":"通用市区","baidu_level1":"购物服务","baidu_level2":"中国移动营业厅","area":"宜昌","source":"amap","in_water":false}},{"type":"Feature","geometry":{"type":"Point","coordinates":[111.28143372526962,30.70803240206989]},"properties":{"name":"机械革命授权专卖店·特约服务站(宜昌街边店)","zone_id":"general","zone_name":"通用市区","baidu_level1":"购物服务","baidu_level2":"数码电子","area":"宜昌","source":"amap","in_water":false}},{"type":"Feature","geometry":{"type":"Point","coordinates":[111.28141075225784,30.70825931838276]},"properties":{"name":"联想体验店联想百应(联想专卖店超文店)","zone_id":"general","zone_name":"通用市区","baidu_level1":"购物服务","baidu_level2":"数码电子","area":"宜昌","source":"amap","in_water":false}},{"type":"Feature","geometry":{"type":"Point","coordinates":[111.28590438614596,30.707616240483013]},"properties":{"name":"名创优品(CBD·购物中心店)","zone_id":"general","zone_name":"通用市区","baidu_level1":"购物服务","baidu_level2":"购物相关场所","area":"宜昌","source":"amap","in_water":false}},{"type":"Feature","geometry":{"type":"Point","coordinates":[111.2795507590051,30.70466810060802]},"properties":{"name":"自己人宜昌菜肖家巷总店","zone_id":"general","zone_name":"通用市区","baidu_level1":"购物服务","baidu_level2":"服装鞋帽皮具店","area":"宜昌","source":"amap","in_water":false}},{"type":"Feature","geometry":{"type":"Point","coordinates":[111.30633502173319,30.71075267152556]},"properties":{"name":"北山生活超市(东山店)","zone_id":"general","zone_name":"通用市区","baidu_level1":"购物服务","baidu_level2":"超市","area":"宜昌","source":"amap","in_water":false}},{"type":"Feature","geometry":{"type":"Point","coordinates":[111.37101687143897,30.654748327982425]},"properties":{"name":"川粤家居工厂直营店","zone_id":"general","zone_name":"通用市区","baidu_level1":"购物服务","baidu_level2":"家居建材市场","area":"宜昌","source":"amap","in_water":false}},{"type":"Feature","geometry":{"type":"Point","coordinates":[111.36787196735105,30.670116428092513]},"properties":{"name":"宜昌曼物生活·家居工场","zone_id":"general","zone_name":"通用市区","baidu_level1":"购物服务","baidu_level2":"购物相关场所","area":"宜昌","source":"amap","in_water":false}},{"type":"Feature","geometry":{"type":"Point","coordinates":[111.28210359487882,30.70532994009122]},"properties":{"name":"联想专卖店(宜昌市珍珠路店)","zone_id":"general","zone_name":"通用市区","baidu_level1":"购物服务","baidu_level2":"数码电子","area":"宜昌","source":"amap","in_water":false}},{"type":"Feature","geometry":{"type":"Point","coordinates":[111.3218774409727,30.702059411282608]},"properties":{"name":"立邦官方(宜昌金东山店)","zone_id":"general","zone_name":"通用市区","baidu_level1":"购物服务","baidu_level2":"建材五金市场","area":"宜昌","source":"amap","in_water":false}},{"type":"Feature","geometry":{"type":"Point","coordinates":[111.29277439342971,30.700190464792303]},"properties":{"name":"联想专卖店(宜昌云集路店)","zone_id":"general","zone_name":"通用市区","baidu_level1":"购物服务","baidu_level2":"数码电子","area":"宜昌","source":"amap","in_water":false}},{"type":"Feature","geometry":{"type":"Point","coordinates":[111.32009132540877,30.7160100415603]},"properties":{"name":"鸿蒙智行用户中心(享界|智界)·宜昌发展大道","zone_id":"general","zone_name":"通用市区","baidu_level1":"购物服务","baidu_level2":"购物相关场所","area":"宜昌","source":"amap","in_water":false}},{"type":"Feature","geometry":{"type":"Point","coordinates":[111.29152084049625,30.7061064253457]},"properties":{"name":"华灯初上·庭院餐厅","zone_id":"yiling_cbd","zone_name":"夷陵广场CBD","baidu_level1":"购物服务","baidu_level2":"餐饮相关","area":"宜昌","source":"amap","in_water":false}},{"type":"Feature","geometry":{"type":"Point","coordinates":[111.30386404541028,30.682396353456284]},"properties":{"name":"DJI大疆售点(宜昌万达店)","zone_id":"wanda_plaza","zone_name":"万达国际广场","baidu_level1":"购物服务","baidu_level2":"专营店","area":"宜昌","source":"amap","in_water":false}},{"type":"Feature","geometry":{"type":"Point","coordinates":[111.31367898367367,30.70959811489259]},"properties":{"name":"全友家居(西陵旗舰店)","zone_id":"general","zone_name":"通用市区","baidu_level1":"购物服务","baidu_level2":"家具城","area":"宜昌","source":"amap","in_water":false}},{"type":"Feature","geometry":{"type":"Point","coordinates":[111.3014422711705,30.683596834386233]},"properties":{"name":"OPPO官方授权体验店(宜昌伍家岗区万达广场店)","zone_id":"wanda_plaza","zone_name":"万达国际广场","baidu_level1":"购物服务","baidu_level2":"手机销售","area":"宜昌","source":"amap","in_water":false}},{"type":"Feature","geometry":{"type":"Point","coordinates":[111.37972021523038,30.675352775182315]},"properties":{"name":"宜昌喜盈门家居公园家居生活馆A馆","zone_id":"general","zone_name":"通用市区","baidu_level1":"购物服务","baidu_level2":"旅游景点","area":"宜昌","source":"amap","in_water":false}},{"type":"Feature","geometry":{"type":"Point","coordinates":[111.33384675998106,30.730006881220106]},"properties":{"name":"顾家家居(居然旗舰店)","zone_id":"general","zone_name":"通用市区","baidu_level1":"购物服务","baidu_level2":"家具城","area":"宜昌","source":"amap","in_water":false}},{"type":"Feature","geometry":{"type":"Point","coordinates":[111.34902659139696,30.64192899435822]},"properties":{"name":"北山生活超市(中建之星二店)","zone_id":"general","zone_name":"通用市区","baidu_level1":"购物服务","baidu_level2":"购物相关场所","area":"宜昌","source":"amap","in_water":false}},{"type":"Feature","geometry":{"type":"Point","coordinates":[111.29048603123472,30.696974247344492]},"properties":{"name":"超视立远近一体镜专业定制中心(宜昌店)","zone_id":"general","zone_name":"通用市区","baidu_level1":"购物服务","baidu_level2":"眼镜店","area":"宜昌","source":"amap","in_water":false}},{"type":"Feature","geometry":{"type":"Point","coordinates":[111.31463668685294,30.693632991881397]},"properties":{"name":"鑫怡广场","zone_id":"general","zone_name":"通用市区","baidu_level1":"购物服务","baidu_level2":"购物相关场所","area":"宜昌","source":"amap","in_water":false}},{"type":"Feature","geometry":{"type":"Point","coordinates":[111.28145068438057,30.708109345674522]},"properties":{"name":"联想授权体验店(珍珠路57号店)","zone_id":"general","zone_name":"通用市区","baidu_level1":"购物服务","baidu_level2":"数码电子","area":"宜昌","source":"amap","in_water":false}},{"type":"Feature","geometry":{"type":"Point","coordinates":[111.34968280903274,30.642576576467263]},"properties":{"name":"新华书店(中建·宜昌之星店)","zone_id":"general","zone_name":"通用市区","baidu_level1":"购物服务","baidu_level2":"书店","area":"宜昌","source":"amap","in_water":false}},{"type":"Feature","geometry":{"type":"Point","coordinates":[111.3249835412641,30.67914525732869]},"properties":{"name":"华为智能生活馆•宜昌环球港","zone_id":"general","zone_name":"通用市区","baidu_level1":"购物服务","baidu_level2":"数码电子","area":"宜昌","source":"amap","in_water":false}},{"type":"Feature","geometry":{"type":"Point","coordinates":[111.28616746590376,30.711672941055284]},"properties":{"name":"林氏家居(宜昌CBD店)","zone_id":"general","zone_name":"通用市区","baidu_level1":"购物服务","baidu_level2":"购物相关场所","area":"宜昌","source":"amap","in_water":false}},{"type":"Feature","geometry":{"type":"Point","coordinates":[111.27793988064373,30.704471882846423]},"properties":{"name":"北山生活超市(东门店)","zone_id":"general","zone_name":"通用市区","baidu_level1":"购物服务","baidu_level2":"便民商店/便利店","area":"宜昌","source":"amap","in_water":false}},{"type":"Feature","geometry":{"type":"Point","coordinates":[111.29043645281419,30.705040461165186]},"properties":{"name":"One Moment(宜昌国贸店)","zone_id":"yiling_cbd","zone_name":"夷陵广场CBD","baidu_level1":"购物服务","baidu_level2":"品牌服装店","area":"宜昌","source":"amap","in_water":false}},{"type":"Feature","geometry":{"type":"Point","coordinates":[111.28076991366845,30.709737321748495]},"properties":{"name":"联想体验店(宜昌蓝之星智生活店)","zone_id":"general","zone_name":"通用市区","baidu_level1":"购物服务","baidu_level2":"数码电子","area":"宜昌","source":"amap","in_water":false}},{"type":"Feature","geometry":{"type":"Point","coordinates":[111.35591815047668,30.65105646194296]},"properties":{"name":"华为授权体验店(国贸新天地)","zone_id":"wuyi_square","zone_name":"五一广场","baidu_level1":"购物服务","baidu_level2":"手机销售","area":"宜昌","source":"amap","in_water":false}},{"type":"Feature","geometry":{"type":"Point","coordinates":[111.38245188883015,30.66413048343818]},"properties":{"name":"三峡物流园","zone_id":"general","zone_name":"通用市区","baidu_level1":"生活服务","baidu_level2":"物流仓储场地","area":"宜昌","source":"amap","in_water":false}},{"type":"Feature","geometry":{"type":"Point","coordinates":[111.29971076979785,30.68301692004511]},"properties":{"name":"三峡游客中心","zone_id":"general","zone_name":"通用市区","baidu_level1":"生活服务","baidu_level2":"生活服务场所","area":"宜昌","source":"amap","in_water":false}},{"type":"Feature","geometry":{"type":"Point","coordinates":[111.36755773742347,30.668910386429527]},"properties":{"name":"天元国际汽车物流城","zone_id":"general","zone_name":"通用市区","baidu_level1":"生活服务","baidu_level2":"汽车销售","area":"宜昌","source":"amap","in_water":false}},{"type":"Feature","geometry":{"type":"Point","coordinates":[111.30803574272858,30.75339535213567]},"properties":{"name":"三峡大坝旅游区三角地接待站","zone_id":"general","zone_name":"通用市区","baidu_level1":"生活服务","baidu_level2":"生活服务场所","area":"宜昌","source":"amap","in_water":false}},{"type":"Feature","geometry":{"type":"Point","coordinates":[111.33633444636227,30.652727481608334]},"properties":{"name":"江畔大地","zone_id":"general","zone_name":"通用市区","baidu_level1":"生活服务","baidu_level2":"生活服务场所","area":"宜昌","source":"amap","in_water":false}},{"type":"Feature","geometry":{"type":"Point","coordinates":[111.31084316226746,30.706007001518667]},"properties":{"name":"御龍泉宫足道·SPA·轻食","zone_id":"general","zone_name":"通用市区","baidu_level1":"生活服务","baidu_level2":"洗浴推拿场所","area":"宜昌","source":"amap","in_water":false}},{"type":"Feature","geometry":{"type":"Point","coordinates":[111.26729916022377,30.713742370162123]},"properties":{"name":"川沐城市微度假(西陵店)","zone_id":"general","zone_name":"通用市区","baidu_level1":"生活服务","baidu_level2":"洗浴推拿场所","area":"宜昌","source":"amap","in_water":false}},{"type":"Feature","geometry":{"type":"Point","coordinates":[111.3127068408233,30.75405863970477]},"properties":{"name":"老周物流公司","zone_id":"general","zone_name":"通用市区","baidu_level1":"生活服务","baidu_level2":"物流速递","area":"宜昌","source":"amap","in_water":false}},{"type":"Feature","geometry":{"type":"Point","coordinates":[111.311317747715,30.707222560110523]},"properties":{"name":"雅斯超市(水悦城泰富广场店)","zone_id":"shuiyuecheng","zone_name":"水悦城","baidu_level1":"生活服务","baidu_level2":"生活服务场所","area":"宜昌","source":"amap","in_water":false}},{"type":"Feature","geometry":{"type":"Point","coordinates":[111.30922742801093,30.70795195188187]},"properties":{"name":"东方杰座","zone_id":"shuiyuecheng","zone_name":"水悦城","baidu_level1":"生活服务","baidu_level2":"生活服务场所","area":"宜昌","source":"amap","in_water":false}},{"type":"Feature","geometry":{"type":"Point","coordinates":[111.28808371825248,30.740938914473144]},"properties":{"name":"三峡人家风景区船进售票处","zone_id":"general","zone_name":"通用市区","baidu_level1":"生活服务","baidu_level2":"公园景点售票处","area":"宜昌","source":"amap","in_water":false}},{"type":"Feature","geometry":{"type":"Point","coordinates":[111.29215758523948,30.703307862644408]},"properties":{"name":"华为授权服务中心(宜昌东山大道)","zone_id":"general","zone_name":"通用市区","baidu_level1":"生活服务","baidu_level2":"维修站点","area":"宜昌","source":"amap","in_water":false}},{"type":"Feature","geometry":{"type":"Point","coordinates":[111.29884390859785,30.683748967278397]},"properties":{"name":"三峡游客中心售票厅","zone_id":"general","zone_name":"通用市区","baidu_level1":"生活服务","baidu_level2":"公园景点售票处","area":"宜昌","source":"amap","in_water":false}},{"type":"Feature","geometry":{"type":"Point","coordinates":[111.2828164979691,30.701021177072526]},"properties":{"name":"浙足轩影院足浴·自助餐·轻奢SPA(宜昌二店)","zone_id":"general","zone_name":"通用市区","baidu_level1":"生活服务","baidu_level2":"洗浴推拿场所","area":"宜昌","source":"amap","in_water":false}},{"type":"Feature","geometry":{"type":"Point","coordinates":[111.3275900657345,30.679203244936044]},"properties":{"name":"宜昌爱合口腔医院维乐口腔门诊部","zone_id":"general","zone_name":"通用市区","baidu_level1":"生活服务","baidu_level2":"生活服务场所","area":"宜昌","source":"amap","in_water":false}},{"type":"Feature","geometry":{"type":"Point","coordinates":[111.31719038124277,30.671890329335206]},"properties":{"name":"宜昌中燃城市燃气发展有限公司","zone_id":"general","zone_name":"通用市区","baidu_level1":"生活服务","baidu_level2":"生活服务场所","area":"宜昌","source":"amap","in_water":false}},{"type":"Feature","geometry":{"type":"Point","coordinates":[111.3011809769052,30.683246425894577]},"properties":{"name":"三峡游客接待中心","zone_id":"wanda_plaza","zone_name":"万达国际广场","baidu_level1":"生活服务","baidu_level2":"服务中心","area":"宜昌","source":"amap","in_water":false}},{"type":"Feature","geometry":{"type":"Point","coordinates":[111.32103302432795,30.700069964003195]},"properties":{"name":"越汤汇·云池","zone_id":"general","zone_name":"通用市区","baidu_level1":"生活服务","baidu_level2":"洗浴推拿场所","area":"宜昌","source":"amap","in_water":false}},{"type":"Feature","geometry":{"type":"Point","coordinates":[111.35531277413577,30.649691037776055]},"properties":{"name":"豪爵足道·SPA(福久源店)","zone_id":"wuyi_square","zone_name":"五一广场","baidu_level1":"生活服务","baidu_level2":"洗浴推拿场所","area":"宜昌","source":"amap","in_water":false}},{"type":"Feature","geometry":{"type":"Point","coordinates":[111.2855375928322,30.714458380307082]},"properties":{"name":"豪爵足道plus店","zone_id":"general","zone_name":"通用市区","baidu_level1":"生活服务","baidu_level2":"洗浴推拿场所","area":"宜昌","source":"amap","in_water":false}},{"type":"Feature","geometry":{"type":"Point","coordinates":[111.31819778488422,30.668948777273208]},"properties":{"name":"永乐水汇","zone_id":"general","zone_name":"通用市区","baidu_level1":"生活服务","baidu_level2":"洗浴推拿场所","area":"宜昌","source":"amap","in_water":false}},{"type":"Feature","geometry":{"type":"Point","coordinates":[111.3251322190711,30.677949523408653]},"properties":{"name":"豪爵足道·SPA(长江广场店)","zone_id":"general","zone_name":"通用市区","baidu_level1":"生活服务","baidu_level2":"洗浴推拿场所","area":"宜昌","source":"amap","in_water":false}},{"type":"Feature","geometry":{"type":"Point","coordinates":[111.34607598959417,30.670153752144127]},"properties":{"name":"清江月亮湾营销中心","zone_id":"general","zone_name":"通用市区","baidu_level1":"生活服务","baidu_level2":"生活服务场所","area":"宜昌","source":"amap","in_water":false}},{"type":"Feature","geometry":{"type":"Point","coordinates":[111.27896046487669,30.698159841271963]},"properties":{"name":"季域足道·采耳·SPA(陶珠路店)","zone_id":"ermalu_oldstreet","zone_name":"二马路-解放路核心老街","baidu_level1":"生活服务","baidu_level2":"美容美发店","area":"宜昌","source":"amap","in_water":false}},{"type":"Feature","geometry":{"type":"Point","coordinates":[111.30940404878852,30.72987986285734]},"properties":{"name":"三峡大学接待中心","zone_id":"general","zone_name":"通用市区","baidu_level1":"生活服务","baidu_level2":"生活服务场所","area":"宜昌","source":"amap","in_water":false}},{"type":"Feature","geometry":{"type":"Point","coordinates":[111.2921079484564,30.700443304821672]},"properties":{"name":"vivo官方客户服务中心(东山大道店)","zone_id":"general","zone_name":"通用市区","baidu_level1":"生活服务","baidu_level2":"维修站点","area":"宜昌","source":"amap","in_water":false}},{"type":"Feature","geometry":{"type":"Point","coordinates":[111.29956604977069,30.684048673814473]},"properties":{"name":"季域足道·采耳·SPA(伍家万达店)","zone_id":"general","zone_name":"通用市区","baidu_level1":"生活服务","baidu_level2":"洗浴推拿场所","area":"宜昌","source":"amap","in_water":false}},{"type":"Feature","geometry":{"type":"Point","coordinates":[111.30907575522004,30.708958734266748]},"properties":{"name":"豪爵足道·SPA(东山店)","zone_id":"shuiyuecheng","zone_name":"水悦城","baidu_level1":"生活服务","baidu_level2":"洗浴推拿场所","area":"宜昌","source":"amap","in_water":false}},{"type":"Feature","geometry":{"type":"Point","coordinates":[111.27714052137574,30.702898444697126]},"properties":{"name":"雅斯超市(天紫荟店)","zone_id":"general","zone_name":"通用市区","baidu_level1":"生活服务","baidu_level2":"生活服务场所","area":"宜昌","source":"amap","in_water":false}},{"type":"Feature","geometry":{"type":"Point","coordinates":[111.29210861510495,30.704303454880204]},"properties":{"name":"豪爵足道·泰COOL·SPA(国贸店)","zone_id":"yiling_cbd","zone_name":"夷陵广场CBD","baidu_level1":"生活服务","baidu_level2":"生活服务场所","area":"宜昌","source":"amap","in_water":false}},{"type":"Feature","geometry":{"type":"Point","coordinates":[111.32111252322447,30.691704778228516]},"properties":{"name":"微特智慧谷","zone_id":"general","zone_name":"通用市区","baidu_level1":"生活服务","baidu_level2":"生活服务场所","area":"宜昌","source":"amap","in_water":false}},{"type":"Feature","geometry":{"type":"Point","coordinates":[111.3137760185507,30.67138588112672]},"properties":{"name":"坐一坐","zone_id":"general","zone_name":"通用市区","baidu_level1":"生活服务","baidu_level2":"生活服务场所","area":"宜昌","source":"amap","in_water":false}},{"type":"Feature","geometry":{"type":"Point","coordinates":[111.36191009537607,30.636403517086446]},"properties":{"name":"东方汇","zone_id":"general","zone_name":"通用市区","baidu_level1":"生活服务","baidu_level2":"洗浴推拿场所","area":"宜昌","source":"amap","in_water":false}},{"type":"Feature","geometry":{"type":"Point","coordinates":[111.38732530774274,30.660904387945113]},"properties":{"name":"宜昌大道物流","zone_id":"general","zone_name":"通用市区","baidu_level1":"生活服务","baidu_level2":"物流速递","area":"宜昌","source":"amap","in_water":false}},{"type":"Feature","geometry":{"type":"Point","coordinates":[111.30838504748078,30.681051162596177]},"properties":{"name":"燕沙云禧宴","zone_id":"general","zone_name":"通用市区","baidu_level1":"生活服务","baidu_level2":"生活服务场所","area":"宜昌","source":"amap","in_water":false}},{"type":"Feature","geometry":{"type":"Point","coordinates":[111.31778762801031,30.707258628763256]},"properties":{"name":"宜昌高新区创业服务中心南苑科技创业园(珠海路)","zone_id":"general","zone_name":"通用市区","baidu_level1":"生活服务","baidu_level2":"生活服务场所","area":"宜昌","source":"amap","in_water":false}},{"type":"Feature","geometry":{"type":"Point","coordinates":[111.37304430917506,30.661582907010168]},"properties":{"name":"宝阁丽宴会中心","zone_id":"general","zone_name":"通用市区","baidu_level1":"生活服务","baidu_level2":"生活服务场所","area":"宜昌","source":"amap","in_water":false}},{"type":"Feature","geometry":{"type":"Point","coordinates":[111.32998407188778,30.68078193468556]},"properties":{"name":"头号管家·宜昌店","zone_id":"general","zone_name":"通用市区","baidu_level1":"生活服务","baidu_level2":"生活服务场所","area":"宜昌","source":"amap","in_water":false}},{"type":"Feature","geometry":{"type":"Point","coordinates":[111.29501745683142,30.70647413617661]},"properties":{"name":"宜昌烈士陵园","zone_id":"general","zone_name":"通用市区","baidu_level1":"生活服务","baidu_level2":"风景名胜","area":"宜昌","source":"amap","in_water":false}},{"type":"Feature","geometry":{"type":"Point","coordinates":[111.3183463024142,30.7158174220857]},"properties":{"name":"中国邮政宜昌市分公司","zone_id":"general","zone_name":"通用市区","baidu_level1":"生活服务","baidu_level2":"物流速递","area":"宜昌","source":"amap","in_water":false}},{"type":"Feature","geometry":{"type":"Point","coordinates":[111.3009345721123,30.74170739720727]},"properties":{"name":"船进三峡人家","zone_id":"general","zone_name":"通用市区","baidu_level1":"生活服务","baidu_level2":"生活服务场所","area":"宜昌","source":"amap","in_water":false}},{"type":"Feature","geometry":{"type":"Point","coordinates":[111.29888665410887,30.685449108710607]},"properties":{"name":"宜昌万达广场游客中心","zone_id":"general","zone_name":"通用市区","baidu_level1":"生活服务","baidu_level2":"服务中心","area":"宜昌","source":"amap","in_water":false}},{"type":"Feature","geometry":{"type":"Point","coordinates":[111.27297404312388,30.70226061319286]},"properties":{"name":"中国燃气(西陵营业厅)","zone_id":"general","zone_name":"通用市区","baidu_level1":"生活服务","baidu_level2":"生活服务场所","area":"宜昌","source":"amap","in_water":false}},{"type":"Feature","geometry":{"type":"Point","coordinates":[111.3347457882624,30.700404638204102]},"properties":{"name":"愚公物流","zone_id":"general","zone_name":"通用市区","baidu_level1":"生活服务","baidu_level2":"物流速递","area":"宜昌","source":"amap","in_water":false}},{"type":"Feature","geometry":{"type":"Point","coordinates":[111.387016912892,30.65860260745772]},"properties":{"name":"宜昌博达物流有限公司","zone_id":"general","zone_name":"通用市区","baidu_level1":"生活服务","baidu_level2":"物流速递","area":"宜昌","source":"amap","in_water":false}},{"type":"Feature","geometry":{"type":"Point","coordinates":[111.32690092863417,30.68049596779861]},"properties":{"name":"季域足道·采耳·SPA(新华广场店)","zone_id":"general","zone_name":"通用市区","baidu_level1":"生活服务","baidu_level2":"洗浴推拿场所","area":"宜昌","source":"amap","in_water":false}},{"type":"Feature","geometry":{"type":"Point","coordinates":[111.37671331644712,30.675609580919634]},"properties":{"name":"货拉拉(宜昌伍家岗店)","zone_id":"general","zone_name":"通用市区","baidu_level1":"生活服务","baidu_level2":"物流速递","area":"宜昌","source":"amap","in_water":false}},{"type":"Feature","geometry":{"type":"Point","coordinates":[111.28435097982268,30.69290819177591]},"properties":{"name":"宜昌市国家电网供电局","zone_id":"ermalu_oldstreet","zone_name":"二马路-解放路核心老街","baidu_level1":"生活服务","baidu_level2":"电力营业厅","area":"宜昌","source":"amap","in_water":false}},{"type":"Feature","geometry":{"type":"Point","coordinates":[111.31242008486369,30.70271273187989]},"properties":{"name":"合和大唐足道•泰式SPA(城市之光店)","zone_id":"general","zone_name":"通用市区","baidu_level1":"生活服务","baidu_level2":"生活服务场所","area":"宜昌","source":"amap","in_water":false}},{"type":"Feature","geometry":{"type":"Point","coordinates":[111.31225532802164,30.70518784277927]},"properties":{"name":"中国移动通信集团宜昌分公司","zone_id":"general","zone_name":"通用市区","baidu_level1":"生活服务","baidu_level2":"生活服务场所","area":"宜昌","source":"amap","in_water":false}},{"type":"Feature","geometry":{"type":"Point","coordinates":[111.33795525477613,30.68288982385064]},"properties":{"name":"城发望春山营销中心","zone_id":"general","zone_name":"通用市区","baidu_level1":"生活服务","baidu_level2":"生活服务场所","area":"宜昌","source":"amap","in_water":false}},{"type":"Feature","geometry":{"type":"Point","coordinates":[111.30630096139916,30.712509876460157]},"properties":{"name":"千米手机电脑维修回收(水悦城店)","zone_id":"general","zone_name":"通用市区","baidu_level1":"生活服务","baidu_level2":"汽车维修","area":"宜昌","source":"amap","in_water":false}},{"type":"Feature","geometry":{"type":"Point","coordinates":[111.2904105476491,30.70463269325189]},"properties":{"name":"转转二手回收(宜昌国贸大厦店)","zone_id":"yiling_cbd","zone_name":"夷陵广场CBD","baidu_level1":"生活服务","baidu_level2":"生活服务场所","area":"宜昌","source":"amap","in_water":false}},{"type":"Feature","geometry":{"type":"Point","coordinates":[111.3110905353261,30.705368863409088]},"properties":{"name":"叮聆里采耳Spa馆(No.1宜昌店)","zone_id":"general","zone_name":"通用市区","baidu_level1":"生活服务","baidu_level2":"洗浴推拿场所","area":"宜昌","source":"amap","in_water":false}},{"type":"Feature","geometry":{"type":"Point","coordinates":[111.38135471300626,30.662658062783]},"properties":{"name":"中国移动手机电脑维修(二手回收)","zone_id":"general","zone_name":"通用市区","baidu_level1":"生活服务","baidu_level2":"维修站点","area":"宜昌","source":"amap","in_water":false}},{"type":"Feature","geometry":{"type":"Point","coordinates":[111.35471232720532,30.649097276012537]},"properties":{"name":"莲子汇影院式足道(伍家岗店)","zone_id":"wuyi_square","zone_name":"五一广场","baidu_level1":"生活服务","baidu_level2":"生活服务场所","area":"宜昌","source":"amap","in_water":false}},{"type":"Feature","geometry":{"type":"Point","coordinates":[111.28748204974838,30.70613792215507]},"properties":{"name":"莲子汇影院足道(夷陵广场店)","zone_id":"general","zone_name":"通用市区","baidu_level1":"生活服务","baidu_level2":"洗浴推拿场所","area":"宜昌","source":"amap","in_water":false}},{"type":"Feature","geometry":{"type":"Point","coordinates":[111.36507188138316,30.66014368059758]},"properties":{"name":"宜昌东站售票处","zone_id":"general","zone_name":"通用市区","baidu_level1":"生活服务","baidu_level2":"售票处","area":"宜昌","source":"amap","in_water":false}},{"type":"Feature","geometry":{"type":"Point","coordinates":[111.36754062170134,30.659268729239262]},"properties":{"name":"宜昌汽车客运中心站售票处","zone_id":"general","zone_name":"通用市区","baidu_level1":"生活服务","baidu_level2":"售票处","area":"宜昌","source":"amap","in_water":false}},{"type":"Feature","geometry":{"type":"Point","coordinates":[111.31491337181262,30.73448855643488]},"properties":{"name":"宜昌泽顺物流有限公司","zone_id":"general","zone_name":"通用市区","baidu_level1":"生活服务","baidu_level2":"物流速递","area":"宜昌","source":"amap","in_water":false}},{"type":"Feature","geometry":{"type":"Point","coordinates":[111.28453762227144,30.71577497715456]},"properties":{"name":"千米手机电脑维修回收(锦绣华府店)","zone_id":"general","zone_name":"通用市区","baidu_level1":"生活服务","baidu_level2":"维修站点","area":"宜昌","source":"amap","in_water":false}},{"type":"Feature","geometry":{"type":"Point","coordinates":[111.38572324728942,30.663132455111842]},"properties":{"name":"三志物流(宜昌总部)","zone_id":"general","zone_name":"通用市区","baidu_level1":"生活服务","baidu_level2":"物流速递","area":"宜昌","source":"amap","in_water":false}},{"type":"Feature","geometry":{"type":"Point","coordinates":[111.28010008618483,30.699916781679164]},"properties":{"name":"中国移动(中山路步行街营业厅)","zone_id":"general","zone_name":"通用市区","baidu_level1":"生活服务","baidu_level2":"中国移动营业厅","area":"宜昌","source":"amap","in_water":false}},{"type":"Feature","geometry":{"type":"Point","coordinates":[111.34791165605891,30.640639499511295]},"properties":{"name":"玟莎社区旗舰店(滨江广场店)","zone_id":"general","zone_name":"通用市区","baidu_level1":"生活服务","baidu_level2":"生活服务场所","area":"宜昌","source":"amap","in_water":false}},{"type":"Feature","geometry":{"type":"Point","coordinates":[111.38437135019736,30.660781477743654]},"properties":{"name":"山东临沂长英物流","zone_id":"general","zone_name":"通用市区","baidu_level1":"生活服务","baidu_level2":"物流速递","area":"宜昌","source":"amap","in_water":false}},{"type":"Feature","geometry":{"type":"Point","coordinates":[111.31019363265274,30.686529404130464]},"properties":{"name":"老潮汕牛肉火锅","zone_id":"general","zone_name":"通用市区","baidu_level1":"生活服务","baidu_level2":"生活服务场所","area":"宜昌","source":"amap","in_water":false}},{"type":"Feature","geometry":{"type":"Point","coordinates":[111.32399236794367,30.702322259394393]},"properties":{"name":"宜昌市烟草物流配送中心","zone_id":"general","zone_name":"通用市区","baidu_level1":"生活服务","baidu_level2":"物流速递","area":"宜昌","source":"amap","in_water":false}},{"type":"Feature","geometry":{"type":"Point","coordinates":[111.34394192838575,30.6455045096959]},"properties":{"name":"千米手机电脑维修回收(江山多娇店)","zone_id":"general","zone_name":"通用市区","baidu_level1":"生活服务","baidu_level2":"维修站点","area":"宜昌","source":"amap","in_water":false}},{"type":"Feature","geometry":{"type":"Point","coordinates":[111.39365259229336,30.62102526759226]},"properties":{"name":"湖北省宜昌市宜昌收费站高速ETC服务网点","zone_id":"general","zone_name":"通用市区","baidu_level1":"生活服务","baidu_level2":"生活服务场所","area":"宜昌","source":"amap","in_water":false}},{"type":"Feature","geometry":{"type":"Point","coordinates":[111.30126972190047,30.68354514176403]},"properties":{"name":"转转二手回收(伍家岗万达广场店)","zone_id":"wanda_plaza","zone_name":"万达国际广场","baidu_level1":"生活服务","baidu_level2":"生活服务场所","area":"宜昌","source":"amap","in_water":false}},{"type":"Feature","geometry":{"type":"Point","coordinates":[111.30773651444639,30.719173114537156]},"properties":{"name":"菜鸟驿站(三峡大学南苑学生公寓店)","zone_id":"general","zone_name":"通用市区","baidu_level1":"生活服务","baidu_level2":"物流速递","area":"宜昌","source":"amap","in_water":false}},{"type":"Feature","geometry":{"type":"Point","coordinates":[111.3109945345682,30.708439554841412]},"properties":{"name":"觅觉·SPA(水悦城店)","zone_id":"shuiyuecheng","zone_name":"水悦城","baidu_level1":"生活服务","baidu_level2":"生活服务场所","area":"宜昌","source":"amap","in_water":false}},{"type":"Feature","geometry":{"type":"Point","coordinates":[111.38433630814923,30.6618270378591]},"properties":{"name":"宇鑫物流(三峡物流园店)","zone_id":"general","zone_name":"通用市区","baidu_level1":"生活服务","baidu_level2":"物流速递","area":"宜昌","source":"amap","in_water":false}},{"type":"Feature","geometry":{"type":"Point","coordinates":[111.31927344560297,30.67225925382316]},"properties":{"name":"中国邮政(杨岔路邮政支局)","zone_id":"general","zone_name":"通用市区","baidu_level1":"生活服务","baidu_level2":"邮政速递","area":"宜昌","source":"amap","in_water":false}},{"type":"Feature","geometry":{"type":"Point","coordinates":[111.29239770514258,30.695315326910006]},"properties":{"name":"玺耳古法采耳文化体验馆(星光天地店)","zone_id":"general","zone_name":"通用市区","baidu_level1":"生活服务","baidu_level2":"生活服务场所","area":"宜昌","source":"amap","in_water":false}},{"type":"Feature","geometry":{"type":"Point","coordinates":[111.3082143867181,30.682492796424217]},"properties":{"name":"木子李家政","zone_id":"general","zone_name":"通用市区","baidu_level1":"生活服务","baidu_level2":"中介机构","area":"宜昌","source":"amap","in_water":false}},{"type":"Feature","geometry":{"type":"Point","coordinates":[111.27200572051693,30.725219234058923]},"properties":{"name":"西坝街道办事处","zone_id":"general","zone_name":"通用市区","baidu_level1":"生活服务","baidu_level2":"生活服务场所","area":"宜昌","source":"amap","in_water":false}},{"type":"Feature","geometry":{"type":"Point","coordinates":[111.30163383817928,30.682862859564526]},"properties":{"name":"尤希尤尔·美学设计","zone_id":"wanda_plaza","zone_name":"万达国际广场","baidu_level1":"生活服务","baidu_level2":"生活服务场所","area":"宜昌","source":"amap","in_water":false}},{"type":"Feature","geometry":{"type":"Point","coordinates":[111.28713106475816,30.726658334960305]},"properties":{"name":"中国邮政(葛洲坝邮政支局)","zone_id":"general","zone_name":"通用市区","baidu_level1":"生活服务","baidu_level2":"邮局","area":"宜昌","source":"amap","in_water":false}},{"type":"Feature","geometry":{"type":"Point","coordinates":[111.35149648830502,30.649417505457766]},"properties":{"name":"顺丰速运(白沙路店)","zone_id":"general","zone_name":"通用市区","baidu_level1":"生活服务","baidu_level2":"生活服务场所","area":"宜昌","source":"amap","in_water":false}},{"type":"Feature","geometry":{"type":"Point","coordinates":[111.28473276610727,30.70925591009626]},"properties":{"name":"春丽和金刚SHOW(宜昌CBD店)(暂停营业)","zone_id":"general","zone_name":"通用市区","baidu_level1":"生活服务","baidu_level2":"生活服务场所","area":"宜昌","source":"amap","in_water":false}},{"type":"Feature","geometry":{"type":"Point","coordinates":[111.32939891615352,30.67883295301352]},"properties":{"name":"宜修哥电脑维修","zone_id":"general","zone_name":"通用市区","baidu_level1":"生活服务","baidu_level2":"维修站点","area":"宜昌","source":"amap","in_water":false}},{"type":"Feature","geometry":{"type":"Point","coordinates":[111.27963405037539,30.711035934378984]},"properties":{"name":"湖北建和律师事务所","zone_id":"general","zone_name":"通用市区","baidu_level1":"生活服务","baidu_level2":"律师事务所","area":"宜昌","source":"amap","in_water":false}},{"type":"Feature","geometry":{"type":"Point","coordinates":[111.3728714988012,30.640472328432747]},"properties":{"name":"顺丰速运(伍家店)","zone_id":"general","zone_name":"通用市区","baidu_level1":"生活服务","baidu_level2":"物流速递","area":"宜昌","source":"amap","in_water":false}},{"type":"Feature","geometry":{"type":"Point","coordinates":[111.33928044250595,30.672583079870655]},"properties":{"name":"宸樾府营销中心","zone_id":"general","zone_name":"通用市区","baidu_level1":"生活服务","baidu_level2":"生活服务场所","area":"宜昌","source":"amap","in_water":false}},{"type":"Feature","geometry":{"type":"Point","coordinates":[111.27312499814086,30.699756680117822]},"properties":{"name":"宜红元新派馆","zone_id":"general","zone_name":"通用市区","baidu_level1":"生活服务","baidu_level2":"生活服务场所","area":"宜昌","source":"amap","in_water":false}},{"type":"Feature","geometry":{"type":"Point","coordinates":[111.29089024410337,30.70687894204235]},"properties":{"name":"世界名表维修(东山大道店)","zone_id":"general","zone_name":"通用市区","baidu_level1":"生活服务","baidu_level2":"维修站点","area":"宜昌","source":"amap","in_water":false}},{"type":"Feature","geometry":{"type":"Point","coordinates":[111.28788448575256,30.702272249811518]},"properties":{"name":"中国邮政(夷陵大道邮政支局)","zone_id":"general","zone_name":"通用市区","baidu_level1":"生活服务","baidu_level2":"邮局","area":"宜昌","source":"amap","in_water":false}},{"type":"Feature","geometry":{"type":"Point","coordinates":[111.29840437240667,30.691254157088903]},"properties":{"name":"顺丰速运(万达店)","zone_id":"general","zone_name":"通用市区","baidu_level1":"生活服务","baidu_level2":"物流速递","area":"宜昌","source":"amap","in_water":false}},{"type":"Feature","geometry":{"type":"Point","coordinates":[111.30574646513243,30.68912900451699]},"properties":{"name":"市民卡服务中心","zone_id":"general","zone_name":"通用市区","baidu_level1":"生活服务","baidu_level2":"生活服务场所","area":"宜昌","source":"amap","in_water":false}},{"type":"Feature","geometry":{"type":"Point","coordinates":[111.30725956562016,30.71036525104409]},"properties":{"name":"宜昌爱合口腔医院维艺东山门诊部","zone_id":"general","zone_name":"通用市区","baidu_level1":"生活服务","baidu_level2":"生活服务场所","area":"宜昌","source":"amap","in_water":false}},{"type":"Feature","geometry":{"type":"Point","coordinates":[111.28148763054475,30.707865421684705]},"properties":{"name":"星火韩蒸(星火路店)","zone_id":"general","zone_name":"通用市区","baidu_level1":"生活服务","baidu_level2":"洗浴推拿场所","area":"宜昌","source":"amap","in_water":false}},{"type":"Feature","geometry":{"type":"Point","coordinates":[111.33343475947203,30.6861038779835]},"properties":{"name":"千米手机电脑维修回收(上上城店)","zone_id":"general","zone_name":"通用市区","baidu_level1":"生活服务","baidu_level2":"维修站点","area":"宜昌","source":"amap","in_water":false}},{"type":"Feature","geometry":{"type":"Point","coordinates":[111.31240861484254,30.70851296001459]},"properties":{"name":"北京盈科(宜昌)律师事务所","zone_id":"shuiyuecheng","zone_name":"水悦城","baidu_level1":"生活服务","baidu_level2":"生活服务场所","area":"宜昌","source":"amap","in_water":false}},{"type":"Feature","geometry":{"type":"Point","coordinates":[111.32873441774485,30.7408911663597]},"properties":{"name":"美沭MeiShu","zone_id":"wuyue_square","zone_name":"吾悦广场","baidu_level1":"生活服务","baidu_level2":"生活服务场所","area":"宜昌","source":"amap","in_water":false}},{"type":"Feature","geometry":{"type":"Point","coordinates":[111.30686245715572,30.72401725214908]},"properties":{"name":"中国邮政(三峡大学邮政支局)","zone_id":"general","zone_name":"通用市区","baidu_level1":"生活服务","baidu_level2":"邮局","area":"宜昌","source":"amap","in_water":false}},{"type":"Feature","geometry":{"type":"Point","coordinates":[111.35879296893363,30.653030053444123]},"properties":{"name":"伍投·璞境营销中心","zone_id":"general","zone_name":"通用市区","baidu_level1":"生活服务","baidu_level2":"生活服务场所","area":"宜昌","source":"amap","in_water":false}},{"type":"Feature","geometry":{"type":"Point","coordinates":[111.30239591457128,30.68218891044867]},"properties":{"name":"万达影城(宜昌万达广场店)","zone_id":"wanda_plaza","zone_name":"万达国际广场","baidu_level1":"休闲娱乐","baidu_level2":"电影院","area":"宜昌","source":"amap","in_water":false}},{"type":"Feature","geometry":{"type":"Point","coordinates":[111.32154304061372,30.683102981090226]},"properties":{"name":"维也纳国际酒店(宜昌中南路兴发广场店)","zone_id":"general","zone_name":"通用市区","baidu_level1":"休闲娱乐","baidu_level2":"商务住宅相关","area":"宜昌","source":"amap","in_water":false}},{"type":"Feature","geometry":{"type":"Point","coordinates":[111.3171584712437,30.7180655445286]},"properties":{"name":"保利林语溪","zone_id":"general","zone_name":"通用市区","baidu_level1":"休闲娱乐","baidu_level2":"游泳馆","area":"宜昌","source":"amap","in_water":false}},{"type":"Feature","geometry":{"type":"Point","coordinates":[111.30258592513404,30.699516450769124]},"properties":{"name":"宜昌市体育场","zone_id":"general","zone_name":"通用市区","baidu_level1":"休闲娱乐","baidu_level2":"综合体育馆","area":"宜昌","source":"amap","in_water":false}},{"type":"Feature","geometry":{"type":"Point","coordinates":[111.34676976384785,30.719985938121763]},"properties":{"name":"周家冲休闲垂钓","zone_id":"general","zone_name":"通用市区","baidu_level1":"休闲娱乐","baidu_level2":"垂钓园","area":"宜昌","source":"amap","in_water":false}},{"type":"Feature","geometry":{"type":"Point","coordinates":[111.3013131026026,30.701037829601084]},"properties":{"name":"宜昌市体育中心","zone_id":"general","zone_name":"通用市区","baidu_level1":"休闲娱乐","baidu_level2":"综合体育馆","area":"宜昌","source":"amap","in_water":false}},{"type":"Feature","geometry":{"type":"Point","coordinates":[111.3119090423988,30.67332840204454]},"properties":{"name":"壹场TV LIVE","zone_id":"general","zone_name":"通用市区","baidu_level1":"休闲娱乐","baidu_level2":"娱乐场所","area":"宜昌","source":"amap","in_water":false}},{"type":"Feature","geometry":{"type":"Point","coordinates":[111.2880726821314,30.706732856832016]},"properties":{"name":"宜昌剧院(湖北三峡演艺集团)","zone_id":"general","zone_name":"通用市区","baidu_level1":"休闲娱乐","baidu_level2":"剧场","area":"宜昌","source":"amap","in_water":false}},{"type":"Feature","geometry":{"type":"Point","coordinates":[111.27552209447147,30.73097925767674]},"properties":{"name":"长江电力职工活动中心","zone_id":"general","zone_name":"通用市区","baidu_level1":"休闲娱乐","baidu_level2":"休闲场所","area":"宜昌","source":"amap","in_water":false}},{"type":"Feature","geometry":{"type":"Point","coordinates":[111.29467309360226,30.720423854300662]},"properties":{"name":"太平洋影城(宜昌华祥店)","zone_id":"general","zone_name":"通用市区","baidu_level1":"休闲娱乐","baidu_level2":"电影院","area":"宜昌","source":"amap","in_water":false}},{"type":"Feature","geometry":{"type":"Point","coordinates":[111.28599524493508,30.70696244102409]},"properties":{"name":"天河国际影城(夷陵大道店)","zone_id":"general","zone_name":"通用市区","baidu_level1":"休闲娱乐","baidu_level2":"电影院","area":"宜昌","source":"amap","in_water":false}},{"type":"Feature","geometry":{"type":"Point","coordinates":[111.35730654356725,30.65326927513085]},"properties":{"name":"潇湘国际影城(湖北宜昌店)","zone_id":"general","zone_name":"通用市区","baidu_level1":"休闲娱乐","baidu_level2":"电影院","area":"宜昌","source":"amap","in_water":false}},{"type":"Feature","geometry":{"type":"Point","coordinates":[111.30935980609682,30.676235651704463]},"properties":{"name":"江豚极限运动场(江豚广场篮球场)","zone_id":"general","zone_name":"通用市区","baidu_level1":"休闲娱乐","baidu_level2":"运动场所","area":"宜昌","source":"amap","in_water":false}},{"type":"Feature","geometry":{"type":"Point","coordinates":[111.3334811793563,30.737121005978743]},"properties":{"name":"浩克文体运动中心","zone_id":"general","zone_name":"通用市区","baidu_level1":"休闲娱乐","baidu_level2":"运动场所","area":"宜昌","source":"amap","in_water":false}},{"type":"Feature","geometry":{"type":"Point","coordinates":[111.35401095059372,30.730522271158026]},"properties":{"name":"焦家湾休闲垂钓园","zone_id":"general","zone_name":"通用市区","baidu_level1":"休闲娱乐","baidu_level2":"体育休闲服务场所","area":"宜昌","source":"amap","in_water":true}},{"type":"Feature","geometry":{"type":"Point","coordinates":[111.35255208214161,30.645888252751895]},"properties":{"name":"五一剧场(湖北三峡演艺集团)","zone_id":"general","zone_name":"通用市区","baidu_level1":"休闲娱乐","baidu_level2":"剧场","area":"宜昌","source":"amap","in_water":false}},{"type":"Feature","geometry":{"type":"Point","coordinates":[111.37630778803404,30.644385879869425]},"properties":{"name":"宜昌欢乐世界","zone_id":"general","zone_name":"通用市区","baidu_level1":"休闲娱乐","baidu_level2":"游乐场","area":"宜昌","source":"amap","in_water":false}},{"type":"Feature","geometry":{"type":"Point","coordinates":[111.31098753226581,30.708689446571842]},"properties":{"name":"幸福蓝海国际影城(水悦城店)","zone_id":"shuiyuecheng","zone_name":"水悦城","baidu_level1":"休闲娱乐","baidu_level2":"电影院","area":"宜昌","source":"amap","in_water":false}},{"type":"Feature","geometry":{"type":"Point","coordinates":[111.35688062541617,30.65280915283879]},"properties":{"name":"网鱼电竞(宜昌东站店)","zone_id":"general","zone_name":"通用市区","baidu_level1":"休闲娱乐","baidu_level2":"网吧","area":"宜昌","source":"amap","in_water":false}},{"type":"Feature","geometry":{"type":"Point","coordinates":[111.36611326967629,30.652578590507538]},"properties":{"name":"伍家岗区市民活动中心","zone_id":"general","zone_name":"通用市区","baidu_level1":"休闲娱乐","baidu_level2":"休闲场所","area":"宜昌","source":"amap","in_water":false}},{"type":"Feature","geometry":{"type":"Point","coordinates":[111.27995175845538,30.69548405029223]},"properties":{"name":"山丘酒吧","zone_id":"ermalu_oldstreet","zone_name":"二马路-解放路核心老街","baidu_level1":"休闲娱乐","baidu_level2":"酒吧","area":"宜昌","source":"amap","in_water":false}},{"type":"Feature","geometry":{"type":"Point","coordinates":[111.27650978132115,30.70186955930441]},"properties":{"name":"幸福蓝海国际影城(宜昌中心店)","zone_id":"general","zone_name":"通用市区","baidu_level1":"休闲娱乐","baidu_level2":"电影院","area":"宜昌","source":"amap","in_water":false}},{"type":"Feature","geometry":{"type":"Point","coordinates":[111.31213935048515,30.708646384727132]},"properties":{"name":"零距离健身游泳(水悦城店)","zone_id":"shuiyuecheng","zone_name":"水悦城","baidu_level1":"休闲娱乐","baidu_level2":"健身中心","area":"宜昌","source":"amap","in_water":false}},{"type":"Feature","geometry":{"type":"Point","coordinates":[111.27921810290336,30.69655133267677]},"properties":{"name":"ANOTHERLIFE来生·咖啡清吧","zone_id":"ermalu_oldstreet","zone_name":"二马路-解放路核心老街","baidu_level1":"休闲娱乐","baidu_level2":"酒吧","area":"宜昌","source":"amap","in_water":false}},{"type":"Feature","geometry":{"type":"Point","coordinates":[111.32449820127401,30.67603861114431]},"properties":{"name":"潘多拉电竞馆(中南路店)","zone_id":"general","zone_name":"通用市区","baidu_level1":"休闲娱乐","baidu_level2":"网吧","area":"宜昌","source":"amap","in_water":false}},{"type":"Feature","geometry":{"type":"Point","coordinates":[111.30162385304122,30.68299081669068]},"properties":{"name":"K18桌球俱乐部(万达店)","zone_id":"wanda_plaza","zone_name":"万达国际广场","baidu_level1":"休闲娱乐","baidu_level2":"台球厅","area":"宜昌","source":"amap","in_water":false}},{"type":"Feature","geometry":{"type":"Point","coordinates":[111.441087345111,30.669107214324015]},"properties":{"name":"兵哥垂钓","zone_id":"general","zone_name":"通用市区","baidu_level1":"休闲娱乐","baidu_level2":"垂钓园","area":"宜昌","source":"amap","in_water":false}},{"type":"Feature","geometry":{"type":"Point","coordinates":[111.35641968522368,30.630809322058422]},"properties":{"name":"彩虹岛亲子乐园","zone_id":"general","zone_name":"通用市区","baidu_level1":"休闲娱乐","baidu_level2":"游乐场","area":"宜昌","source":"amap","in_water":false}},{"type":"Feature","geometry":{"type":"Point","coordinates":[111.28473176618137,30.709279899710694]},"properties":{"name":"星聚会KTV(宜昌CBD店)","zone_id":"general","zone_name":"通用市区","baidu_level1":"休闲娱乐","baidu_level2":"休闲场所","area":"宜昌","source":"amap","in_water":false}},{"type":"Feature","geometry":{"type":"Point","coordinates":[111.29323447126458,30.72142648784681]},"properties":{"name":"星聚会KTV(宜昌华祥广场店)","zone_id":"general","zone_name":"通用市区","baidu_level1":"休闲娱乐","baidu_level2":"KTV","area":"宜昌","source":"amap","in_water":false}},{"type":"Feature","geometry":{"type":"Point","coordinates":[111.30422564757689,30.699125880046402]},"properties":{"name":"生态体育公园羽毛球馆","zone_id":"general","zone_name":"通用市区","baidu_level1":"休闲娱乐","baidu_level2":"羽毛球场","area":"宜昌","source":"amap","in_water":false}},{"type":"Feature","geometry":{"type":"Point","coordinates":[111.35668821139909,30.65151002834397]},"properties":{"name":"EHA赛博萤火电竞馆(福久源新天地店)","zone_id":"general","zone_name":"通用市区","baidu_level1":"休闲娱乐","baidu_level2":"网吧","area":"宜昌","source":"amap","in_water":false}},{"type":"Feature","geometry":{"type":"Point","coordinates":[111.37100089061133,30.65489228399483]},"properties":{"name":"嗨8台球俱乐部","zone_id":"general","zone_name":"通用市区","baidu_level1":"休闲娱乐","baidu_level2":"台球厅","area":"宜昌","source":"amap","in_water":false}},{"type":"Feature","geometry":{"type":"Point","coordinates":[111.31071326492741,30.708957810111194]},"properties":{"name":"乐刻健身(水悦城店)","zone_id":"shuiyuecheng","zone_name":"水悦城","baidu_level1":"休闲娱乐","baidu_level2":"健身中心","area":"宜昌","source":"amap","in_water":false}},{"type":"Feature","geometry":{"type":"Point","coordinates":[111.29318601649214,30.716434012067136]},"properties":{"name":"欢乐迪(华祥商业中心店)","zone_id":"general","zone_name":"通用市区","baidu_level1":"休闲娱乐","baidu_level2":"KTV","area":"宜昌","source":"amap","in_water":false}},{"type":"Feature","geometry":{"type":"Point","coordinates":[111.37683591385016,30.677721487055845]},"properties":{"name":"华羽体育羽毛球馆(喜盈门馆)","zone_id":"general","zone_name":"通用市区","baidu_level1":"休闲娱乐","baidu_level2":"羽毛球场","area":"宜昌","source":"amap","in_water":false}},{"type":"Feature","geometry":{"type":"Point","coordinates":[111.28561197406876,30.708144354049708]},"properties":{"name":"魅KTV(CBD购物中心店)","zone_id":"general","zone_name":"通用市区","baidu_level1":"休闲娱乐","baidu_level2":"KTV","area":"宜昌","source":"amap","in_water":false}},{"type":"Feature","geometry":{"type":"Point","coordinates":[111.31326658277712,30.739053281638334]},"properties":{"name":"卓羽体育运动中心","zone_id":"general","zone_name":"通用市区","baidu_level1":"休闲娱乐","baidu_level2":"综合体育馆","area":"宜昌","source":"amap","in_water":false}},{"type":"Feature","geometry":{"type":"Point","coordinates":[111.31140375085515,30.750642761614913]},"properties":{"name":"艳青山庄","zone_id":"general","zone_name":"通用市区","baidu_level1":"休闲娱乐","baidu_level2":"休闲场所","area":"宜昌","source":"amap","in_water":false}},{"type":"Feature","geometry":{"type":"Point","coordinates":[111.28493047021257,30.707783378319068]},"properties":{"name":"密码电竞(CBD店)","zone_id":"general","zone_name":"通用市区","baidu_level1":"休闲娱乐","baidu_level2":"网吧","area":"宜昌","source":"amap","in_water":false}},{"type":"Feature","geometry":{"type":"Point","coordinates":[111.28322879558338,30.710893934394505]},"properties":{"name":"摩非电竞(CBD店)","zone_id":"general","zone_name":"通用市区","baidu_level1":"休闲娱乐","baidu_level2":"网吧","area":"宜昌","source":"amap","in_water":false}},{"type":"Feature","geometry":{"type":"Point","coordinates":[111.27756268802925,30.70337579235844]},"properties":{"name":"西海岸酒吧","zone_id":"general","zone_name":"通用市区","baidu_level1":"休闲娱乐","baidu_level2":"酒吧","area":"宜昌","source":"amap","in_water":false}},{"type":"Feature","geometry":{"type":"Point","coordinates":[111.2834228258239,30.69415772155643]},"properties":{"name":"Sober.醒Club酒吧","zone_id":"ermalu_oldstreet","zone_name":"二马路-解放路核心老街","baidu_level1":"休闲娱乐","baidu_level2":"酒吧","area":"宜昌","source":"amap","in_water":false}},{"type":"Feature","geometry":{"type":"Point","coordinates":[111.31341084084396,30.731432851300323]},"properties":{"name":"潘多拉电竞馆(三峡大学店)","zone_id":"general","zone_name":"通用市区","baidu_level1":"休闲娱乐","baidu_level2":"网吧","area":"宜昌","source":"amap","in_water":false}},{"type":"Feature","geometry":{"type":"Point","coordinates":[111.32677415254874,30.682101468124785]},"properties":{"name":"EHA赛博萤火电竞馆(兴发广场店)","zone_id":"zhongnan_road","zone_name":"中南路","baidu_level1":"休闲娱乐","baidu_level2":"体育休闲服务场所","area":"宜昌","source":"amap","in_water":false}},{"type":"Feature","geometry":{"type":"Point","coordinates":[111.27957137718747,30.696979751852677]},"properties":{"name":"夜上海舞厅","zone_id":"ermalu_oldstreet","zone_name":"二马路-解放路核心老街","baidu_level1":"休闲娱乐","baidu_level2":"迪厅","area":"宜昌","source":"amap","in_water":false}},{"type":"Feature","geometry":{"type":"Point","coordinates":[111.28045204653317,30.715579829528973]},"properties":{"name":"天上飞(珍珠路店)","zone_id":"general","zone_name":"通用市区","baidu_level1":"休闲娱乐","baidu_level2":"娱乐场所","area":"宜昌","source":"amap","in_water":false}},{"type":"Feature","geometry":{"type":"Point","coordinates":[111.28527373345584,30.70779094830097]},"properties":{"name":"壹公社·跳舞公社","zone_id":"general","zone_name":"通用市区","baidu_level1":"休闲娱乐","baidu_level2":"娱乐场所","area":"宜昌","source":"amap","in_water":false}},{"type":"Feature","geometry":{"type":"Point","coordinates":[111.31572385395643,30.691096176943287]},"properties":{"name":"等等电竞(港窑路店)","zone_id":"general","zone_name":"通用市区","baidu_level1":"休闲娱乐","baidu_level2":"网吧","area":"宜昌","source":"amap","in_water":false}},{"type":"Feature","geometry":{"type":"Point","coordinates":[111.32362535185548,30.68005642946317]},"properties":{"name":"大地国际影城(环球港店)","zone_id":"general","zone_name":"通用市区","baidu_level1":"休闲娱乐","baidu_level2":"电影院","area":"宜昌","source":"amap","in_water":false}},{"type":"Feature","geometry":{"type":"Point","coordinates":[111.32818799004002,30.74082424631431]},"properties":{"name":"网鱼电竞(宜昌吾悦广场店)","zone_id":"wuyue_square","zone_name":"吾悦广场","baidu_level1":"休闲娱乐","baidu_level2":"网吧","area":"宜昌","source":"amap","in_water":false}},{"type":"Feature","geometry":{"type":"Point","coordinates":[111.32898459406704,30.742115066510216]},"properties":{"name":"宜昌西陵星轶影城(吾悦广场店)","zone_id":"wuyue_square","zone_name":"吾悦广场","baidu_level1":"休闲娱乐","baidu_level2":"电影院","area":"宜昌","source":"amap","in_water":false}},{"type":"Feature","geometry":{"type":"Point","coordinates":[111.29111965054474,30.70757828218982]},"properties":{"name":"聚众电竞网咖","zone_id":"general","zone_name":"通用市区","baidu_level1":"休闲娱乐","baidu_level2":"网吧","area":"宜昌","source":"amap","in_water":false}},{"type":"Feature","geometry":{"type":"Point","coordinates":[111.30136350397292,30.68326012007285]},"properties":{"name":"网鱼电竞(宜昌万达广场店)","zone_id":"wanda_plaza","zone_name":"万达国际广场","baidu_level1":"休闲娱乐","baidu_level2":"网吧","area":"宜昌","source":"amap","in_water":false}},{"type":"Feature","geometry":{"type":"Point","coordinates":[111.32528591439265,30.687902614970092]},"properties":{"name":"东辰翼龙羽毛球馆","zone_id":"general","zone_name":"通用市区","baidu_level1":"休闲娱乐","baidu_level2":"羽毛球场","area":"宜昌","source":"amap","in_water":false}},{"type":"Feature","geometry":{"type":"Point","coordinates":[111.3111264436792,30.70528284008917]},"properties":{"name":"摩非电竞(宜昌店)","zone_id":"general","zone_name":"通用市区","baidu_level1":"休闲娱乐","baidu_level2":"网吧","area":"宜昌","source":"amap","in_water":false}},{"type":"Feature","geometry":{"type":"Point","coordinates":[111.35254766830995,30.639318082152144]},"properties":{"name":"等等电竞","zone_id":"general","zone_name":"通用市区","baidu_level1":"休闲娱乐","baidu_level2":"网吧","area":"宜昌","source":"amap","in_water":false}},{"type":"Feature","geometry":{"type":"Point","coordinates":[111.29782669947201,30.739133679589735]},"properties":{"name":"葛洲坝颐福乐园养老公寓","zone_id":"general","zone_name":"通用市区","baidu_level1":"休闲娱乐","baidu_level2":"疗养院","area":"宜昌","source":"amap","in_water":false}},{"type":"Feature","geometry":{"type":"Point","coordinates":[111.29230629562102,30.702593991307126]},"properties":{"name":"金逸国际电影城(卓悦店)","zone_id":"general","zone_name":"通用市区","baidu_level1":"休闲娱乐","baidu_level2":"电影院","area":"宜昌","source":"amap","in_water":false}},{"type":"Feature","geometry":{"type":"Point","coordinates":[111.3284109426643,30.71106159491547]},"properties":{"name":"明星体育羽毛球馆","zone_id":"general","zone_name":"通用市区","baidu_level1":"休闲娱乐","baidu_level2":"羽毛球场","area":"宜昌","source":"amap","in_water":false}},{"type":"Feature","geometry":{"type":"Point","coordinates":[111.30592103492245,30.711872843082837]},"properties":{"name":"神舟网咖(城东大道店)","zone_id":"general","zone_name":"通用市区","baidu_level1":"休闲娱乐","baidu_level2":"网吧","area":"宜昌","source":"amap","in_water":false}},{"type":"Feature","geometry":{"type":"Point","coordinates":[111.3219183345665,30.667352472057196]},"properties":{"name":"星洲国际游泳健身(三峡国际店)","zone_id":"general","zone_name":"通用市区","baidu_level1":"休闲娱乐","baidu_level2":"健身中心","area":"宜昌","source":"amap","in_water":false}},{"type":"Feature","geometry":{"type":"Point","coordinates":[111.30905620541466,30.727498667844376]},"properties":{"name":"三峡大学体育馆","zone_id":"general","zone_name":"通用市区","baidu_level1":"休闲娱乐","baidu_level2":"综合体育馆","area":"宜昌","source":"amap","in_water":false}},{"type":"Feature","geometry":{"type":"Point","coordinates":[111.28108766695155,30.716850501026983]},"properties":{"name":"伽纹电竞","zone_id":"general","zone_name":"通用市区","baidu_level1":"休闲娱乐","baidu_level2":"网吧","area":"宜昌","source":"amap","in_water":false}},{"type":"Feature","geometry":{"type":"Point","coordinates":[111.34960645668933,30.637458895155145]},"properties":{"name":"星洲国际健身(中建之星滨江店)","zone_id":"general","zone_name":"通用市区","baidu_level1":"休闲娱乐","baidu_level2":"健身中心","area":"宜昌","source":"amap","in_water":false}},{"type":"Feature","geometry":{"type":"Point","coordinates":[111.31181526522572,30.67375437773301]},"properties":{"name":"IN99 PARTY BOX","zone_id":"general","zone_name":"通用市区","baidu_level1":"休闲娱乐","baidu_level2":"体育休闲服务场所","area":"宜昌","source":"amap","in_water":false}},{"type":"Feature","geometry":{"type":"Point","coordinates":[111.32406397977243,30.681396973790207]},"properties":{"name":"中数国际影城(兴发广场店)","zone_id":"zhongnan_road","zone_name":"中南路","baidu_level1":"休闲娱乐","baidu_level2":"电影院","area":"宜昌","source":"amap","in_water":false}},{"type":"Feature","geometry":{"type":"Point","coordinates":[111.28161264078558,30.6931213202669]},"properties":{"name":"Nine.籁Whisky&cocktail bar","zone_id":"ermalu_oldstreet","zone_name":"二马路-解放路核心老街","baidu_level1":"休闲娱乐","baidu_level2":"酒吧","area":"宜昌","source":"amap","in_water":false}},{"type":"Feature","geometry":{"type":"Point","coordinates":[111.35448694300426,30.659942874656828]},"properties":{"name":"华羽体育羽毛球馆(鑫磊馆)","zone_id":"general","zone_name":"通用市区","baidu_level1":"休闲娱乐","baidu_level2":"羽毛球场","area":"宜昌","source":"amap","in_water":false}},{"type":"Feature","geometry":{"type":"Point","coordinates":[111.32889286112898,30.742067266367968]},"properties":{"name":"沃抓抓(宜昌吾悦广场店)","zone_id":"wuyue_square","zone_name":"吾悦广场","baidu_level1":"休闲娱乐","baidu_level2":"游戏厅","area":"宜昌","source":"amap","in_water":false}},{"type":"Feature","geometry":{"type":"Point","coordinates":[111.3255697353171,30.680598466858804]},"properties":{"name":"零距离健身游泳(兴发广场店)","zone_id":"zhongnan_road","zone_name":"中南路","baidu_level1":"休闲娱乐","baidu_level2":"健身中心","area":"宜昌","source":"amap","in_water":false}},{"type":"Feature","geometry":{"type":"Point","coordinates":[111.32341995260083,30.679907889470975]},"properties":{"name":"森迪儿童成长中心(环球港店)","zone_id":"general","zone_name":"通用市区","baidu_level1":"休闲娱乐","baidu_level2":"购物相关场所","area":"宜昌","source":"amap","in_water":false}},{"type":"Feature","geometry":{"type":"Point","coordinates":[111.31097956090493,30.708612498153393]},"properties":{"name":"大麦电竞","zone_id":"shuiyuecheng","zone_name":"水悦城","baidu_level1":"休闲娱乐","baidu_level2":"网吧","area":"宜昌","source":"amap","in_water":false}},{"type":"Feature","geometry":{"type":"Point","coordinates":[111.35685581833864,30.65130185219785]},"properties":{"name":"菜狗电竞(福久源店)","zone_id":"general","zone_name":"通用市区","baidu_level1":"休闲娱乐","baidu_level2":"网吧","area":"宜昌","source":"amap","in_water":false}},{"type":"Feature","geometry":{"type":"Point","coordinates":[111.28113441332893,30.695376794745346]},"properties":{"name":"奥汀电竞","zone_id":"ermalu_oldstreet","zone_name":"二马路-解放路核心老街","baidu_level1":"休闲娱乐","baidu_level2":"网吧","area":"宜昌","source":"amap","in_water":false}},{"type":"Feature","geometry":{"type":"Point","coordinates":[111.2856317529133,30.71022332259318]},"properties":{"name":"SIX&潘多拉电竞馆","zone_id":"general","zone_name":"通用市区","baidu_level1":"休闲娱乐","baidu_level2":"网吧","area":"宜昌","source":"amap","in_water":false}},{"type":"Feature","geometry":{"type":"Point","coordinates":[111.32470774543906,30.674374971891858]},"properties":{"name":"北极光网咖(中南路店)","zone_id":"general","zone_name":"通用市区","baidu_level1":"休闲娱乐","baidu_level2":"体育休闲服务场所","area":"宜昌","source":"amap","in_water":false}},{"type":"Feature","geometry":{"type":"Point","coordinates":[111.28514588866459,30.709182434499933]},"properties":{"name":"菜狗电竞(大洋百货店)","zone_id":"general","zone_name":"通用市区","baidu_level1":"休闲娱乐","baidu_level2":"网吧","area":"宜昌","source":"amap","in_water":false}},{"type":"Feature","geometry":{"type":"Point","coordinates":[111.33006295113871,30.679575340551928]},"properties":{"name":"碰场(中南路店)","zone_id":"general","zone_name":"通用市区","baidu_level1":"休闲娱乐","baidu_level2":"娱乐场所","area":"宜昌","source":"amap","in_water":false}},{"type":"Feature","geometry":{"type":"Point","coordinates":[111.29027881638942,30.705040679842195]},"properties":{"name":"CGV影城(国贸大厦店)","zone_id":"yiling_cbd","zone_name":"夷陵广场CBD","baidu_level1":"休闲娱乐","baidu_level2":"电影院","area":"宜昌","source":"amap","in_water":false}},{"type":"Feature","geometry":{"type":"Point","coordinates":[111.34404384543589,30.734779474652093]},"properties":{"name":"蓝孔雀山庄","zone_id":"general","zone_name":"通用市区","baidu_level1":"休闲娱乐","baidu_level2":"度假村","area":"宜昌","source":"amap","in_water":false}},{"type":"Feature","geometry":{"type":"Point","coordinates":[111.28480461427469,30.70923882982404]},"properties":{"name":"爱吉乐潮玩","zone_id":"general","zone_name":"通用市区","baidu_level1":"休闲娱乐","baidu_level2":"体育休闲服务场所","area":"宜昌","source":"amap","in_water":false}},{"type":"Feature","geometry":{"type":"Point","coordinates":[111.32583810508542,30.678998691411092]},